% program   : RTKLIB ver.demo5 b31
% inp file  : rover_2019-06-08_08-03-52.obs
% inp file  : 2019-06-08-00_00_00-GNSS-1.obs
% inp file  : 2019-06-08-00_00_00-GNSS-1.nav
% inp file  : 2019-06-08-00_00_00-GNSS-1.sbs
% obs start : 2019/06/08 08:03:55.5 GPST (week2056 547435.5s)
% obs end   : 2019/06/08 09:46:21.0 GPST (week2056 553581.0s)
% pos mode  : kinematic
% freqs     : L1
% solution  : combined
% elev mask : 15.0 deg
% dynamics  : on
% tidecorr  : off
% ionos opt : sbas
% tropo opt : sbas
% ephemeris : broadcast
% navi sys  : gps galileo beidou sbas
% amb res   : fix and hold
% val thres : 3.0
% antenna1  :                       ( 0.0000  0.0000  0.0000)
% antenna2  :                       ( 0.0000  0.0000  0.0000)
% ref pos   : 47.060027749  -1.350495019   84.8600
%
% (lat/lon/height=WGS84/ellipsoidal,Q=1:fix,2:float,3:sbas,4:dgps,5:single,6:ppp,ns=# of satellites)
%  GPST                  latitude(deg) longitude(deg)  height(m)   Q  ns   sdn(m)   sde(m)   sdu(m)  sdne(m)  sdeu(m)  sdun(m) age(s)  ratio
2019/06/08 08:23:12.000   46.948881673   -1.484757046    92.3955   5   2   1.5620   0.9325   0.8167  -0.7246   0.7583   0.6573   0.00    0.0
2019/06/08 08:23:12.300   46.948848788   -1.484833804    92.4220   5   3   1.4758   1.0096   0.8814  -0.6942   0.8505   0.6116   0.30    0.0
2019/06/08 08:23:12.600   46.948813792   -1.484909829    92.4091   5   2   2.1081   1.2813   1.0397  -1.1106   0.9987   0.7367   0.60    0.0
2019/06/08 08:23:12.900   46.948779140   -1.484986229    92.3736   5   2   2.8326   1.6742   1.2982  -1.5630   1.2565   0.8884   0.90    0.0
2019/06/08 08:23:13.200   46.948744854   -1.485062975    92.2902   5   2   3.6159   2.1241   1.6466  -1.9920   1.5901   1.1395   0.20    0.0
2019/06/08 08:23:13.500   46.948713060   -1.485139149    92.3189   5  18   3.9457   2.4259   2.0200  -1.9980   1.9244   1.4795   0.50    0.0
2019/06/08 08:23:13.800   46.948683857   -1.485217312    92.2626   5  19   3.5354   2.4717   2.2715  -1.2931   2.1249   1.7616   0.80    0.0
2019/06/08 08:23:14.100   46.948655272   -1.485293384    92.2833   5  18   2.7312   2.4024   2.2404   0.6702   2.0525   1.7913   0.10    0.0
2019/06/08 08:23:14.400   46.948626092   -1.485367358    92.3972   5  17   1.9236   2.1953   1.9196   0.9413   1.7132   1.5611   0.40    0.0
2019/06/08 08:23:14.700   46.948596651   -1.485443253    92.5788   5  17   1.2701   1.6139   1.4645   0.8161   1.3018   1.2056   0.70    0.0
2019/06/08 08:23:15.000   46.948566957   -1.485520023    92.7400   5   2   0.7828   0.9580   0.9790   0.5956   0.8588   0.8204   0.00    0.0
2019/06/08 08:23:15.300   46.948537341   -1.485595237    92.9436   5  17   0.5342   0.6179   0.7083   0.4817   0.6250   0.5978   0.30    0.0
2019/06/08 08:23:15.600   46.948507439   -1.485669909    93.1221   2   4   0.4058   0.3567   0.4900   0.3239   0.3941   0.4355  -0.40    0.0
2019/06/08 08:23:15.900   46.948477526   -1.485744397    93.2623   2   4   0.3750   0.2358   0.4073   0.2477   0.2858   0.3832  -0.10    0.0
2019/06/08 08:23:16.200   46.948451394   -1.485815546    93.9011   2   4   0.1836   0.1904   0.2316   0.1661   0.2067   0.1962   0.20    0.0
2019/06/08 08:23:16.500   46.948420724   -1.485888453    94.0974   2   5   0.1830   0.1916   0.2330   0.1664   0.2080   0.1964   0.50    0.0
2019/06/08 08:23:16.800   46.948391572   -1.485959494    94.4561   2   7   0.4220   0.5231   0.6166   0.4615   0.5667   0.5058   0.80    0.0
2019/06/08 08:23:17.100   46.948360137   -1.486034550    94.4872   2   4   0.2895   0.3457   0.4102   0.3043   0.3748   0.3384   0.10    0.0
2019/06/08 08:23:17.400   46.948329481   -1.486109424    94.5336   2   4   0.1836   0.1926   0.2334   0.1667   0.2087   0.1967   0.40    0.0
2019/06/08 08:23:17.700   46.948298931   -1.486185006    94.5665   2   4   0.1085   0.0631   0.0879   0.0371   0.0652   0.0840   0.70    0.0
2019/06/08 08:23:18.000   46.948267189   -1.486259346    94.6620   2   5   0.0962   0.0322   0.0516  -0.0415   0.0183   0.0569   0.00    0.0
2019/06/08 08:23:18.300   46.948235607   -1.486333906    94.6421   2   4   0.2189   0.0339   0.1793  -0.0163   0.0414   0.1920   0.30    0.0
2019/06/08 08:23:18.600   46.948203828   -1.486408026    94.6782   2   6   0.1748   0.0331   0.1452  -0.0129   0.0408   0.1523   0.60    0.0
2019/06/08 08:23:18.900   46.948173813   -1.486480502    94.9764   2   4   0.3824   0.4814   0.5612   0.4198   0.5184   0.4584   0.90    0.0
2019/06/08 08:23:19.200   46.948142054   -1.486555005    95.0866   2   4   0.2469   0.3051   0.3520   0.2596   0.3256   0.2872   0.20    0.0
2019/06/08 08:23:19.500   46.948111316   -1.486628980    95.2515   2   4   0.1534   0.1644   0.1890   0.1326   0.1721   0.1581   0.50    0.0
2019/06/08 08:23:19.800   46.948081159   -1.486705093    95.4092   5   2   0.1457   0.1190   0.0889  -0.1016  -0.0312   0.0990   0.80    0.0
2019/06/08 08:23:20.100   46.948049752   -1.486779356    95.5462   2   5   0.0794   0.0282   0.0311  -0.0447  -0.0157   0.0367   0.10    0.0
2019/06/08 08:23:20.400   46.948018473   -1.486853406    95.6833   1   8   0.0337   0.0077   0.0232  -0.0093   0.0056   0.0195  -0.60  137.6
2019/06/08 08:23:20.700   46.947987581   -1.486927517    95.8484   1   8   0.0335   0.0076   0.0230  -0.0092   0.0055   0.0195  -0.30  137.0
2019/06/08 08:23:21.000   46.947956648   -1.487001576    96.0348   1  10   0.0297   0.0059   0.0221  -0.0034  -0.0010   0.0217   0.00   92.2
2019/06/08 08:23:21.300   46.947925845   -1.487075406    96.2532   1   8   0.0337   0.0077   0.0234  -0.0092   0.0057   0.0197  -0.70  135.9
2019/06/08 08:23:21.600   46.947895282   -1.487149661    96.4196   1   9   0.0247   0.0071   0.0229  -0.0045   0.0061   0.0181  -0.40  134.6
2019/06/08 08:23:21.900   46.947864473   -1.487223475    96.5978   1  10   0.0215   0.0065   0.0191  -0.0074   0.0003   0.0134  -0.10  134.6
2019/06/08 08:23:22.200   46.947833612   -1.487297245    96.8061   1  13   0.0183   0.0053   0.0181  -0.0040  -0.0045   0.0148  -0.80  128.1
2019/06/08 08:23:22.500   46.947802999   -1.487371032    97.0089   1  13   0.0126   0.0047   0.0150   0.0039   0.0020   0.0094  -0.50  127.6
2019/06/08 08:23:22.800   46.947772308   -1.487444560    97.1732   1  13   0.0127   0.0047   0.0151   0.0040   0.0021   0.0095  -0.20  126.7
2019/06/08 08:23:23.100   46.947741714   -1.487518109    97.3565   1  13   0.0128   0.0048   0.0152   0.0040   0.0021   0.0096  -0.90  125.9
2019/06/08 08:23:23.400   46.947711032   -1.487591384    97.5293   1  14   0.0107   0.0048   0.0141   0.0034   0.0012   0.0071  -0.60  125.0
2019/06/08 08:23:23.700   46.947680523   -1.487664603    97.7282   1  14   0.0108   0.0048   0.0141   0.0034   0.0014   0.0073  -0.30  124.9
2019/06/08 08:23:24.000   46.947650144   -1.487737769    97.9333   1  15   0.0096   0.0048   0.0143   0.0026   0.0017   0.0077   0.00  125.0
2019/06/08 08:23:24.300   46.947619881   -1.487810960    98.1183   1  15   0.0099   0.0049   0.0149   0.0025   0.0021   0.0080  -0.70  124.5
2019/06/08 08:23:24.600   46.947589696   -1.487884018    98.2902   1  16   0.0100   0.0050   0.0147   0.0029   0.0037   0.0081  -0.40  123.9
2019/06/08 08:23:24.900   46.947559590   -1.487956933    98.4752   1  16   0.0098   0.0045   0.0130   0.0013  -0.0010   0.0069  -0.10  137.4
2019/06/08 08:23:25.200   46.947529477   -1.488029847    98.6622   1  17   0.0109   0.0047   0.0137   0.0003  -0.0015   0.0080  -0.80  136.7
2019/06/08 08:23:25.500   46.947499576   -1.488102578    98.8544   1  15   0.0089   0.0045   0.0129   0.0035   0.0024   0.0057  -0.50   73.4
2019/06/08 08:23:25.800   46.947469669   -1.488174974    99.0530   1  15   0.0099   0.0047   0.0134   0.0041   0.0028   0.0065  -0.20   73.2
2019/06/08 08:23:26.100   46.947439940   -1.488246965    99.2417   1  15   0.0123   0.0054   0.0145   0.0055   0.0034   0.0079  -0.90   73.2
2019/06/08 08:23:26.400   46.947410461   -1.488318266    99.4118   1  14   0.0070   0.0043   0.0133   0.0015  -0.0020   0.0052  -0.60    8.0
2019/06/08 08:23:26.700   46.947381409   -1.488388829    99.5938   1  14   0.0070   0.0043   0.0132   0.0015  -0.0020   0.0052  -0.30    7.1
2019/06/08 08:23:27.000   46.947352691   -1.488458625    99.7872   1  15   0.0063   0.0043   0.0125   0.0014  -0.0021   0.0038   0.00    6.2
2019/06/08 08:23:27.300   46.947324244   -1.488527733    99.9706   1  14   0.0071   0.0043   0.0133   0.0015  -0.0021   0.0052  -0.70    5.1
2019/06/08 08:23:27.600   46.947296226   -1.488596072   100.1577   1  13   0.0100   0.0044   0.0133   0.0031  -0.0017   0.0059  -0.40   35.8
2019/06/08 08:23:27.900   46.947268321   -1.488663688   100.3222   1  15   0.0079   0.0043   0.0132   0.0020  -0.0019   0.0054  -0.10   35.9
2019/06/08 08:23:28.200   46.947240770   -1.488730576   100.4869   1  14   0.0082   0.0044   0.0133   0.0022  -0.0020   0.0055  -0.80   35.7
2019/06/08 08:23:28.500   46.947213627   -1.488796733   100.6640   1  14   0.0087   0.0044   0.0133   0.0024  -0.0019   0.0056  -0.50   35.7
2019/06/08 08:23:28.800   46.947187024   -1.488862157   100.8461   1  14   0.0058   0.0031   0.0094   0.0015  -0.0014   0.0039   0.80    3.3
2019/06/08 08:23:29.100   46.947160479   -1.488926923   101.0013   1  13   0.0101   0.0045   0.0135   0.0031  -0.0017   0.0061  -0.90   35.6
2019/06/08 08:23:29.400   46.947134042   -1.488990886   101.1503   1  12   0.0168   0.0051   0.0169  -0.0050  -0.0054   0.0133  -0.60   39.7
2019/06/08 08:23:29.700   46.947108031   -1.489054173   101.2854   1  12   0.0167   0.0051   0.0168  -0.0050  -0.0054   0.0132  -0.30   39.5
2019/06/08 08:23:30.000   46.947082224   -1.489116615   101.3942   1  12   0.0166   0.0051   0.0166  -0.0049  -0.0053   0.0129   0.00   39.4
2019/06/08 08:23:30.300   46.947056636   -1.489178225   101.5024   1  13   0.0078   0.0049   0.0123  -0.0011  -0.0033   0.0019  -0.70   28.5
2019/06/08 08:23:30.600   46.947031462   -1.489239141   101.6234   1  13   0.0078   0.0048   0.0122  -0.0011  -0.0033   0.0019  -0.40   28.3
2019/06/08 08:23:30.900   46.947006703   -1.489299195   101.7315   1  15   0.0057   0.0043   0.0119   0.0013  -0.0022   0.0019  -0.10   30.6
2019/06/08 08:23:31.200   46.946982244   -1.489358199   101.8311   1  17   0.0053   0.0041   0.0108   0.0019   0.0016  -0.0023  -0.80   26.2
2019/06/08 08:23:31.500   46.946958266   -1.489416160   101.9290   1  17   0.0037   0.0029   0.0077   0.0013   0.0009  -0.0016   0.50    3.2
2019/06/08 08:23:31.800   46.946934936   -1.489472728   102.0272   1  17   0.0037   0.0029   0.0076   0.0013   0.0010  -0.0016   0.80    3.4
2019/06/08 08:23:32.100   46.946912367   -1.489527620   102.1292   1  17   0.0037   0.0029   0.0076   0.0013   0.0010  -0.0016   0.10    3.6
2019/06/08 08:23:32.400   46.946890498   -1.489580948   102.1976   1  17   0.0037   0.0029   0.0076   0.0013   0.0011  -0.0016   0.40    3.8
2019/06/08 08:23:32.700   46.946869563   -1.489632203   102.2186   1  17   0.0037   0.0029   0.0076   0.0013   0.0011  -0.0016   0.70    3.9
2019/06/08 08:23:33.000   46.946849138   -1.489681670   102.2612   1  17   0.0037   0.0029   0.0076   0.0013   0.0011  -0.0016   0.00    4.0
2019/06/08 08:23:33.300   46.946829528   -1.489729623   102.3151   1  17   0.0037   0.0029   0.0076   0.0013   0.0011  -0.0016   0.30    4.0
2019/06/08 08:23:33.600   46.946810716   -1.489775875   102.3531   1  17   0.0037   0.0029   0.0076   0.0013   0.0011  -0.0016   0.60    3.9
2019/06/08 08:23:33.900   46.946792608   -1.489820405   102.3917   1  17   0.0037   0.0029   0.0076   0.0013   0.0011  -0.0016   0.90    3.9
2019/06/08 08:23:34.200   46.946775284   -1.489863010   102.4276   1  17   0.0037   0.0029   0.0076   0.0013   0.0011  -0.0016   0.20    4.0
2019/06/08 08:23:34.500   46.946758754   -1.489903736   102.4626   1  17   0.0037   0.0029   0.0076   0.0013   0.0011  -0.0016   0.50    4.0
2019/06/08 08:23:34.800   46.946743124   -1.489942634   102.4919   1  17   0.0037   0.0029   0.0076   0.0013   0.0011  -0.0016   0.80    4.1
2019/06/08 08:23:35.100   46.946728301   -1.489979865   102.5196   1  17   0.0037   0.0029   0.0076   0.0013   0.0011  -0.0016   0.10    4.2
2019/06/08 08:23:35.400   46.946714037   -1.490016005   102.5495   1  17   0.0037   0.0029   0.0076   0.0013   0.0011  -0.0016   0.40    4.2
2019/06/08 08:23:35.700   46.946700337   -1.490051753   102.5751   1  17   0.0037   0.0029   0.0076   0.0013   0.0011  -0.0016   0.70    4.1
2019/06/08 08:23:36.000   46.946687282   -1.490087043   102.5893   1  17   0.0037   0.0029   0.0076   0.0013   0.0011  -0.0016   0.00    4.1
2019/06/08 08:23:36.300   46.946675206   -1.490122194   102.6039   1  17   0.0037   0.0029   0.0076   0.0013   0.0010  -0.0016   0.30    4.0
2019/06/08 08:23:36.600   46.946664218   -1.490157135   102.6100   1  17   0.0037   0.0029   0.0076   0.0013   0.0010  -0.0016   0.60    4.0
2019/06/08 08:23:36.900   46.946654547   -1.490192058   102.6157   1  17   0.0037   0.0029   0.0077   0.0013   0.0009  -0.0016   0.90    4.0
2019/06/08 08:23:37.200   46.946646387   -1.490227094   102.6310   1  17   0.0037   0.0029   0.0077   0.0013   0.0006  -0.0016   0.20    4.0
2019/06/08 08:23:37.500   46.946639497   -1.490262108   102.6329   1  17   0.0037   0.0029   0.0077   0.0013   0.0007  -0.0016   0.50   15.7
2019/06/08 08:23:37.800   46.946634042   -1.490296841   102.6423   1  17   0.0037   0.0029   0.0077   0.0013   0.0009  -0.0016   0.80   19.5
2019/06/08 08:23:38.100   46.946630103   -1.490331688   102.6637   1  17   0.0037   0.0029   0.0076   0.0013   0.0012  -0.0016   0.10    4.2
2019/06/08 08:23:38.400   46.946627826   -1.490365889   102.6749   1  17   0.0037   0.0029   0.0075   0.0013   0.0012  -0.0016   0.40    5.6
2019/06/08 08:23:38.700   46.946626703   -1.490399806   102.7107   1  17   0.0037   0.0028   0.0075   0.0013   0.0012  -0.0016   0.70    6.1
2019/06/08 08:23:39.000   46.946626273   -1.490433169   102.7399   1  17   0.0037   0.0028   0.0075   0.0013   0.0012  -0.0016   0.00    7.2
2019/06/08 08:23:39.300   46.946625842   -1.490465991   102.7637   1  17   0.0037   0.0028   0.0075   0.0013   0.0012  -0.0016   0.30    8.3
2019/06/08 08:23:39.600   46.946624440   -1.490498049   102.7787   1  17   0.0037   0.0028   0.0075   0.0013   0.0012  -0.0016   0.60    9.3
2019/06/08 08:23:39.900   46.946621492   -1.490529109   102.7954   1  17   0.0037   0.0029   0.0076   0.0013   0.0012  -0.0016   0.90   10.2
2019/06/08 08:23:40.200   46.946616562   -1.490558861   102.8229   1  17   0.0037   0.0029   0.0076   0.0013   0.0012  -0.0016   0.20   11.1
2019/06/08 08:23:40.500   46.946609691   -1.490587045   102.8559   1  17   0.0037   0.0028   0.0075   0.0013   0.0012  -0.0016   0.50   11.9
2019/06/08 08:23:40.800   46.946601054   -1.490613433   102.8822   1  17   0.0037   0.0029   0.0076   0.0013   0.0012  -0.0016   0.80   12.6
2019/06/08 08:23:41.100   46.946590936   -1.490637955   102.9026   1  17   0.0037   0.0029   0.0076   0.0013   0.0012  -0.0016   0.10   13.3
2019/06/08 08:23:41.400   46.946579179   -1.490660846   102.9391   1  17   0.0037   0.0028   0.0075   0.0013   0.0012  -0.0016   0.40   13.9
2019/06/08 08:23:41.700   46.946565835   -1.490682088   102.9728   1  17   0.0037   0.0028   0.0075   0.0013   0.0012  -0.0016   0.70   14.6
2019/06/08 08:23:42.000   46.946550982   -1.490701548   102.9992   1  17   0.0037   0.0028   0.0075   0.0013   0.0012  -0.0016   0.00   15.2
2019/06/08 08:23:42.300   46.946534768   -1.490718963   103.0185   1  17   0.0037   0.0028   0.0075   0.0013   0.0012  -0.0016   0.30   15.8
2019/06/08 08:23:42.600   46.946517469   -1.490735032   103.0480   1  17   0.0037   0.0028   0.0075   0.0013   0.0012  -0.0016   0.60   16.6
2019/06/08 08:23:42.900   46.946499385   -1.490750275   103.0747   1  17   0.0037   0.0029   0.0076   0.0013   0.0012  -0.0016   0.90   17.3
2019/06/08 08:23:43.200   46.946480595   -1.490765402   103.0989   1  17   0.0037   0.0029   0.0076   0.0013   0.0012  -0.0016   0.20   18.0
2019/06/08 08:23:43.500   46.946461523   -1.490781680   103.1120   1  17   0.0037   0.0028   0.0075   0.0013   0.0012  -0.0016   0.50   18.5
2019/06/08 08:23:43.800   46.946442853   -1.490800186   103.1095   1  17   0.0037   0.0029   0.0076   0.0013   0.0012  -0.0016   0.80   19.1
2019/06/08 08:23:44.100   46.946424525   -1.490821206   103.0997   1  17   0.0037   0.0029   0.0076   0.0013   0.0012  -0.0016   0.10   19.5
2019/06/08 08:23:44.400   46.946406628   -1.490844711   103.1119   1  17   0.0037   0.0028   0.0075   0.0013   0.0012  -0.0016   0.40   20.0
2019/06/08 08:23:44.700   46.946389229   -1.490870854   103.1357   1  17   0.0037   0.0028   0.0075   0.0013   0.0012  -0.0016   0.70   20.4
2019/06/08 08:23:45.000   46.946372374   -1.490899368   103.1703   1  17   0.0037   0.0028   0.0075   0.0013   0.0012  -0.0016   0.00   20.8
2019/06/08 08:23:45.300   46.946355778   -1.490930115   103.2158   1  17   0.0037   0.0028   0.0075   0.0013   0.0012  -0.0016   0.30   21.2
2019/06/08 08:23:45.600   46.946339212   -1.490962585   103.2553   1  17   0.0037   0.0028   0.0075   0.0013   0.0012  -0.0016   0.60   21.6
2019/06/08 08:23:45.900   46.946322282   -1.490996481   103.2969   1  17   0.0037   0.0029   0.0076   0.0013   0.0012  -0.0016   0.90   21.7
2019/06/08 08:23:46.200   46.946305180   -1.491031989   103.3320   1  17   0.0037   0.0029   0.0076   0.0013   0.0012  -0.0016   0.20   21.8
2019/06/08 08:23:46.500   46.946287882   -1.491069052   103.3601   1  17   0.0037   0.0028   0.0075   0.0013   0.0012  -0.0016   0.50   21.7
2019/06/08 08:23:46.800   46.946270381   -1.491107601   103.3968   1  17   0.0037   0.0029   0.0076   0.0013   0.0012  -0.0016   0.80   21.7
2019/06/08 08:23:47.100   46.946252592   -1.491147668   103.4255   1  17   0.0037   0.0029   0.0076   0.0013   0.0012  -0.0016   0.10   21.8
2019/06/08 08:23:47.400   46.946234548   -1.491189067   103.4520   1  17   0.0037   0.0028   0.0075   0.0013   0.0012  -0.0016   0.40   21.9
2019/06/08 08:23:47.700   46.946216030   -1.491231732   103.4873   1  17   0.0038   0.0029   0.0076   0.0014   0.0012  -0.0017   0.70   21.9
2019/06/08 08:23:48.000   46.946197195   -1.491275571   103.5232   1  17   0.0038   0.0028   0.0075   0.0014   0.0012  -0.0017   0.00   22.0
2019/06/08 08:23:48.300   46.946177930   -1.491320586   103.5652   1  17   0.0038   0.0029   0.0076   0.0013   0.0012  -0.0017   0.30   22.1
2019/06/08 08:23:48.600   46.946158233   -1.491366724   103.6035   1  17   0.0039   0.0029   0.0076   0.0013   0.0012  -0.0018   0.60   22.2
2019/06/08 08:23:48.900   46.946138209   -1.491413777   103.6433   1  17   0.0042   0.0029   0.0078   0.0014   0.0011  -0.0010   0.90   22.6
2019/06/08 08:23:49.200   46.946117683   -1.491462037   103.6847   1  16   0.0052   0.0030   0.0082   0.0015   0.0010   0.0026   0.20   24.4
2019/06/08 08:23:49.500   46.946097297   -1.491511020   103.7377   1  16   0.0054   0.0030   0.0083   0.0015   0.0008   0.0026   0.50   24.0
2019/06/08 08:23:49.800   46.946075948   -1.491561273   103.8107   1  13   0.0100   0.0032   0.0097  -0.0014  -0.0018   0.0065   0.80   34.5
2019/06/08 08:23:50.100   46.946054697   -1.491612349   103.8796   1  13   0.0102   0.0033   0.0100  -0.0018  -0.0022   0.0069   0.10   34.8
2019/06/08 08:23:50.400   46.946033161   -1.491664327   103.9328   1  12   0.0119   0.0036   0.0118  -0.0035  -0.0038   0.0093   0.40   33.7
2019/06/08 08:23:50.700   46.946011583   -1.491717409   103.9911   1  12   0.0119   0.0036   0.0119  -0.0035  -0.0038   0.0093   0.70   34.2
2019/06/08 08:23:51.000   46.945989770   -1.491771400   104.0243   1  12   0.0118   0.0036   0.0119  -0.0035  -0.0038   0.0093   0.00   34.5
2019/06/08 08:23:51.300   46.945967777   -1.491826229   104.0479   1  12   0.0119   0.0036   0.0118  -0.0035  -0.0038   0.0093   0.30   34.6
2019/06/08 08:23:51.600   46.945945285   -1.491881652   104.0770   1  13   0.0107   0.0035   0.0113  -0.0027  -0.0033   0.0082   0.60   34.7
2019/06/08 08:23:51.900   46.945922570   -1.491937907   104.1243   1  13   0.0107   0.0035   0.0113  -0.0027  -0.0033   0.0083   0.90   34.7
2019/06/08 08:23:52.200   46.945899358   -1.491994688   104.1614   1  12   0.0119   0.0036   0.0119  -0.0035  -0.0038   0.0093   0.20   34.8
2019/06/08 08:23:52.500   46.945875976   -1.492051575   104.2057   1  12   0.0119   0.0036   0.0119  -0.0035  -0.0038   0.0093   0.50   35.0
2019/06/08 08:23:52.800   46.945852764   -1.492108071   104.2518   1  12   0.0119   0.0036   0.0119  -0.0036  -0.0038   0.0093   0.80   35.3
