@Sonygps/ver1.0/wgs-84
$GPGGA,171807,0645.0673,S,03707.7834,W,1,06,01.1,00241.0,M,-011.9,M,,*6E
$GPGSA,A,3,04,10,13,17,25,27,,,,,,,02.2,01.1,01.8*08
$GPGSV,3,1,12,02,01,327,00,04,19,358,43,08,35,149,34,10,20,273,42*7E
$GPGSV,3,2,12,11,14,102,46,13,34,033,38,15,01,215,00,17,79,012,53*7F
$GPGSV,3,3,12,25,25,093,41,26,09,213,00,27,34,112,46,28,38,188,50*7F
$GPRMC,171807,A,0645.0673,S,03707.7834,W,000.0,352.7,030208,,,A*73
$GPVTG,352.7,T,,M,000.0,N,000.0,K,A*0E
$GPGGA,171837,0645.0327,S,03707.8008,W,1,05,01.3,00226.9,M,-011.9,M,,*68
$GPGSA,A,3,04,10,17,25,27,,,,,,,,02.3,01.3,01.9*08
$GPGSV,3,1,12,02,02,327,00,04,19,358,42,08,36,149,46,10,20,273,47*7F
$GPGSV,3,2,12,11,14,102,40,13,33,033,30,15,01,215,00,17,79,012,52*77
$GPGSV,3,3,12,25,25,092,46,26,09,213,00,27,34,112,48,28,38,188,35*74
$GPRMC,171837,A,0645.0327,S,03707.8008,W,010.4,334.8,030208,,,A*76
$GPVTG,334.8,T,,M,010.4,N,019.3,K,A*0F
$GPGGA,171852,0644.9881,S,03707.8150,W,1,05,01.3,00231.2,M,-011.9,M,,*65
$GPGSA,A,3,04,10,13,17,27,,,,,,,,02.4,01.3,02.0*00
$GPGSV,3,1,12,02,02,327,00,04,19,358,35,08,36,149,37,10,20,274,48*71
$GPGSV,3,2,12,11,14,102,33,13,33,033,35,15,01,215,00,17,79,013,54*71
$GPGSV,3,3,12,25,25,092,34,26,09,213,00,27,34,111,46,28,38,188,51*7E
$GPRMC,171852,A,0644.9881,S,03707.8150,W,011.3,345.7,030208,,,A*79
$GPVTG,345.7,T,,M,011.3,N,021.0,K,A*08
$GPGGA,171907,0644.9327,S,03707.8329,W,1,05,01.5,00233.3,M,-011.9,M,,*6A
$GPGSA,A,3,10,13,17,25,27,,,,,,,,02.5,01.5,02.0*04
$GPGSV,3,1,12,02,02,327,00,04,19,358,31,08,36,149,46,10,20,274,45*7E
$GPGSV,3,2,12,11,13,103,28,13,33,033,42,15,01,215,00,17,79,013,53*7A
$GPGSV,3,3,12,25,25,092,36,26,09,213,00,27,34,111,40,28,38,188,34*79
$GPRMC,171907,A,0644.9327,S,03707.8329,W,013.8,333.6,030208,,,A*7A
$GPVTG,333.6,T,,M,013.8,N,025.6,K,A*03
$GPGGA,171922,0644.8943,S,03707.8559,W,1,05,01.5,00230.1,M,-011.9,M,,*64
$GPGSA,A,3,10,13,17,25,27,,,,,,,,02.5,01.5,02.0*04
$GPGSV,3,1,12,02,02,327,00,04,19,358,31,08,36,149,43,10,20,274,45*7B
$GPGSV,3,2,12,11,13,103,28,13,33,033,44,15,02,215,00,17,79,013,52*7E
$GPGSV,3,3,12,25,25,092,39,26,09,213,00,27,34,111,38,28,38,188,35*78
$GPRMC,171922,A,0644.8943,S,03707.8559,W,007.8,328.3,030208,,,A*7F
$GPVTG,328.3,T,,M,007.8,N,014.4,K,A*09
$GPGGA,171942,0644.8381,S,03707.8897,W,1,05,01.4,00231.7,M,-011.9,M,,*6F
$GPGSA,A,3,04,10,13,17,25,,,,,,,,02.3,01.4,01.9*08
$GPGSV,3,1,12,02,02,327,00,04,19,358,33,08,36,148,43,10,20,274,39*73
$GPGSV,3,2,12,11,13,103,00,13,33,033,38,15,02,215,00,17,79,013,52*7F
$GPGSV,3,3,12,25,25,092,41,26,09,213,00,27,34,111,31,28,38,188,46*7A
$GPRMC,171942,A,0644.8381,S,03707.8897,W,011.8,324.9,030208,,,A*73
$GPVTG,324.9,T,,M,011.8,N,022.0,K,A*09
$GPGGA,171957,0644.8137,S,03707.9334,W,1,05,01.5,00228.1,M,-011.9,M,,*68
$GPGSA,A,3,10,13,17,25,27,,,,,,,,02.5,01.5,02.0*04
$GPGSV,3,1,12,02,02,327,00,04,19,358,32,08,36,148,46,10,20,274,40*79
$GPGSV,3,2,12,11,13,103,00,13,33,033,38,15,02,215,00,17,80,014,52*7E
$GPGSV,3,3,12,25,25,092,38,26,09,213,00,27,34,111,38,28,38,187,46*72
$GPRMC,171957,A,0644.8137,S,03707.9334,W,010.9,307.7,030208,,,A*74
$GPVTG,307.7,T,,M,010.9,N,020.2,K,A*06
$GPGGA,172012,0644.7744,S,03707.9649,W,1,06,01.2,00231.6,M,-011.9,M,,*6A
$GPGSA,A,3,04,10,13,17,25,27,,,,,,,02.2,01.2,01.9*0A
$GPGSV,3,1,12,02,02,327,00,04,19,358,35,08,36,148,44,10,20,274,44*78
$GPGSV,3,2,12,11,13,103,00,13,33,033,35,15,02,215,00,17,80,014,52*73
$GPGSV,3,3,12,25,25,092,37,26,10,213,00,27,34,111,35,28,38,187,35*7C
$GPRMC,172012,A,0644.7744,S,03707.9649,W,015.2,330.1,030208,,,A*71
$GPVTG,330.1,T,,M,015.2,N,028.3,K,A*03
$GPGGA,172027,0644.7284,S,03707.9908,W,1,06,01.2,00232.0,M,-011.9,M,,*6A
$GPGSA,A,3,04,10,13,17,25,27,,,,,,,02.2,01.2,01.9*0A
$GPGSV,3,1,12,02,02,328,00,04,19,359,39,08,36,148,44,10,20,274,38*71
$GPGSV,3,2,12,11,13,103,00,13,33,033,41,15,02,215,00,17,80,014,54*76
$GPGSV,3,3,12,25,25,091,41,26,10,213,00,27,34,111,39,28,38,187,46*76
$GPRMC,172027,A,0644.7284,S,03707.9908,W,010.1,323.9,030208,,,A*78
$GPVTG,323.9,T,,M,010.1,N,018.7,K,A*08
$GPGGA,172042,0644.6932,S,03708.0192,W,1,06,01.2,00236.9,M,-011.9,M,,*6E
$GPGSA,A,3,04,10,13,17,25,27,,,,,,,02.2,01.2,01.9*0A
$GPGSV,3,1,12,02,02,328,00,04,19,359,33,08,36,148,44,10,20,275,41*74
$GPGSV,3,2,12,11,13,103,00,13,32,033,36,15,02,215,00,17,80,014,52*71
$GPGSV,3,3,12,25,25,091,40,26,10,213,00,27,34,110,39,28,38,187,43*73
$GPRMC,172042,A,0644.6932,S,03708.0192,W,009.9,319.3,030208,,,A*72
$GPVTG,319.3,T,,M,009.9,N,018.3,K,A*0F
$GPGGA,172057,0644.6651,S,03708.0488,W,1,06,01.2,00237.2,M,-011.9,M,,*64
$GPGSA,A,3,04,10,13,17,25,27,,,,,,,02.2,01.2,01.9*0A
$GPGSV,3,1,12,02,02,328,00,04,19,359,38,08,36,148,46,10,20,275,38*73
$GPGSV,3,2,12,11,13,103,00,13,32,033,41,15,02,215,00,17,80,015,52*70
$GPGSV,3,3,12,25,25,091,41,26,10,213,00,27,34,110,41,28,38,187,35*7C
$GPRMC,172057,A,0644.6651,S,03708.0488,W,012.8,304.6,030208,,,A*70
$GPVTG,304.6,T,,M,012.8,N,023.7,K,A*01
$GPGGA,172112,0644.6335,S,03708.0815,W,1,06,01.2,00236.7,M,-011.9,M,,*6F
$GPGSA,A,3,04,10,13,17,25,27,,,,,,,02.2,01.2,01.9*0A
$GPGSV,3,1,12,02,02,328,00,04,19,359,34,08,36,148,41,10,20,275,46*71
$GPGSV,3,2,12,11,13,103,00,13,32,033,36,15,02,215,00,17,80,015,51*73
$GPGSV,3,3,12,25,25,091,46,26,10,213,00,27,34,110,49,28,38,187,31*77
$GPRMC,172112,A,0644.6335,S,03708.0815,W,007.3,324.1,030208,,,A*75
$GPVTG,324.1,T,,M,007.3,N,013.6,K,A*09
$GPGGA,172127,0644.5967,S,03708.1090,W,1,06,01.2,00237.1,M,-011.9,M,,*64
$GPGSA,A,3,04,10,13,17,25,27,,,,,,,02.2,01.2,01.9*0A
$GPGSV,3,1,12,02,02,328,00,04,19,359,40,08,36,148,42,10,20,275,45*72
$GPGSV,3,2,12,11,13,104,00,13,32,033,46,15,02,215,00,17,80,015,50*72
$GPGSV,3,3,12,25,25,091,46,26,10,213,00,27,34,110,40,28,37,187,42*75
$GPRMC,172127,A,0644.5967,S,03708.1090,W,009.0,332.3,030208,,,A*71
$GPVTG,332.3,T,,M,009.0,N,016.6,K,A*04
$GPGGA,172142,0644.5759,S,03708.1045,W,1,05,03.3,00236.0,M,-011.9,M,,*6C
$GPGSA,A,3,04,13,17,25,27,,,,,,,,04.6,03.3,03.3*02
$GPGSV,3,1,12,02,02,328,00,04,19,359,43,08,36,147,36,10,20,275,32*7D
$GPGSV,3,2,12,11,13,104,00,13,32,032,45,15,02,215,00,17,80,016,53*70
$GPGSV,3,3,12,25,25,091,37,26,10,213,00,27,34,110,34,28,37,187,50*73
$GPRMC,172142,A,0644.5759,S,03708.1045,W,003.5,051.0,030208,,,A*73
$GPVTG,051.0,T,,M,003.5,N,006.6,K,A*0F
$GPGGA,172157,0644.5694,S,03708.0786,W,1,05,03.3,00235.8,M,-011.9,M,,*6A
$GPGSA,A,3,04,13,17,25,27,,,,,,,,04.7,03.3,03.3*03
$GPGSV,3,1,12,02,02,328,00,04,19,359,45,08,36,147,45,10,20,275,30*7D
$GPGSV,3,2,12,11,13,104,00,13,32,032,45,15,02,215,00,17,81,016,53*71
$GPGSV,3,3,12,25,25,091,36,26,10,213,00,27,34,110,41,28,37,187,49*78
$GPRMC,172157,A,0644.5694,S,03708.0786,W,012.8,068.6,030208,,,A*7F
$GPVTG,068.6,T,,M,012.8,N,023.7,K,A*08
$GPGGA,172212,0644.5518,S,03708.0331,W,1,04,04.9,00235.2,M,-011.9,M,,*61
$GPGSA,A,3,04,10,13,17,,,,,,,,,06.9,04.9,04.8*0D
$GPGSV,3,1,12,02,02,328,00,04,19,359,42,08,36,147,41,10,20,275,40*79
$GPGSV,3,2,12,11,13,104,00,13,32,032,40,15,03,215,00,17,81,016,54*72
$GPGSV,3,3,12,25,25,091,31,26,10,213,00,27,34,110,35,28,37,186,52*77
$GPRMC,172212,A,0644.5518,S,03708.0331,W,010.9,057.8,030208,,,A*73
$GPVTG,057.8,T,,M,010.9,N,020.2,K,A*0F
$GPGGA,172227,0644.5364,S,03708.0024,W,1,06,01.2,00235.3,M,-011.9,M,,*60
$GPGSA,A,3,04,10,13,17,25,27,,,,,,,02.2,01.2,01.9*0A
$GPGSV,3,1,12,02,02,328,00,04,20,359,40,08,36,147,40,10,20,275,43*73
$GPGSV,3,2,12,11,13,104,00,13,32,032,41,15,03,215,00,17,81,016,54*73
$GPGSV,3,3,12,25,25,090,35,26,10,213,00,27,34,109,40,28,37,186,51*7B
$GPRMC,172227,A,0644.5364,S,03708.0024,W,009.3,059.0,030208,,,A*7B
$GPVTG,059.0,T,,M,009.3,N,017.2,K,A*0F
$GPGGA,172242,0644.5317,S,03707.9956,W,1,04,03.9,00237.9,M,-011.9,M,,*6E
$GPGSA,A,3,04,13,17,25,,,,,,,,,05.5,03.9,03.8*04
$GPGSV,3,1,12,02,02,328,00,04,20,359,41,08,36,147,45,10,20,276,31*71
$GPGSV,3,2,12,11,13,104,00,13,32,032,46,15,03,215,00,17,81,017,54*75
$GPGSV,3,3,12,25,25,090,38,26,10,213,00,27,34,109,34,28,37,186,41*74
$GPRMC,172242,A,0644.5317,S,03707.9956,W,002.6,218.1,030208,,,A*7E
$GPVTG,218.1,T,,M,002.6,N,004.8,K,A*0F
$GPGGA,172257,0644.5292,S,03707.9944,W,1,06,01.2,00238.6,M,-011.9,M,,*6E
$GPGSA,A,3,04,10,13,17,25,27,,,,,,,02.2,01.2,01.9*0A
$GPGSV,3,1,12,02,02,328,00,04,20,359,41,08,36,147,41,10,20,276,35*71
$GPGSV,3,2,12,11,13,104,00,13,31,032,45,15,03,215,00,17,81,017,54*75
$GPGSV,3,3,12,25,25,090,41,26,11,213,00,27,34,109,35,28,37,186,48*73
$GPRMC,172257,A,0644.5292,S,03707.9944,W,001.8,197.9,030208,,,A*74
$GPVTG,197.9,T,,M,001.8,N,003.3,K,A*02
$GPGGA,172312,0644.5258,S,03707.9890,W,1,04,03.5,00239.8,M,-011.9,M,,*68
$GPGSA,A,3,04,13,17,27,,,,,,,,,04.9,03.5,03.5*0A
$GPGSV,3,1,12,02,02,328,00,04,20,000,46,08,36,147,44,10,20,276,33*7A
$GPGSV,3,2,12,11,13,104,00,13,31,032,46,15,03,216,00,17,81,017,53*72
$GPGSV,3,3,12,25,25,090,33,26,11,213,00,27,34,109,36,28,37,186,49*74
$GPRMC,172312,A,0644.5258,S,03707.9890,W,002.9,066.2,030208,,,A*7C
$GPVTG,066.2,T,,M,002.9,N,005.4,K,A*05
$GPGGA,172327,0644.5173,S,03707.9831,W,1,06,01.2,00239.2,M,-011.9,M,,*62
$GPGSA,A,3,04,10,13,17,25,27,,,,,,,02.2,01.2,01.9*0A
$GPGSV,3,1,12,02,02,329,00,04,20,000,43,08,36,147,40,10,20,276,35*7C
$GPGSV,3,2,12,11,13,104,00,13,31,032,45,15,03,216,00,17,81,018,53*7E
$GPGSV,3,3,12,25,25,090,37,26,11,213,00,27,34,109,34,28,37,186,35*79
$GPRMC,172327,A,0644.5173,S,03707.9831,W,002.7,053.3,030208,,,A*72
$GPVTG,053.3,T,,M,002.7,N,005.1,K,A*09
$GPGGA,172342,0644.5083,S,03707.9730,W,1,03,02.6,00240.9,M,-011.9,M,,*66
$GPGSA,A,2,13,17,25,,,,,,,,,,02.8,02.6,00.9*07
$GPGSV,3,1,12,02,02,329,00,04,20,000,35,08,36,146,37,10,20,276,34*7D
$GPGSV,3,2,12,11,13,104,00,13,31,032,46,15,03,216,00,17,81,018,55*7B
$GPGSV,3,3,12,25,25,090,40,26,11,213,00,27,34,109,28,28,37,186,50*77
$GPRMC,172342,A,0644.5083,S,03707.9730,W,009.0,055.3,030208,,,A*7B
$GPVTG,055.3,T,,M,009.0,N,016.8,K,A*08
$GPGGA,172357,0644.4911,S,03707.9458,W,1,05,03.4,00243.1,M,-011.9,M,,*62
$GPGSA,A,3,04,13,17,25,27,,,,,,,,04.9,03.4,03.5*0C
$GPGSV,3,1,12,02,02,329,00,04,20,000,39,08,36,146,35,10,20,276,33*74
$GPGSV,3,2,12,11,13,105,00,13,31,032,46,15,03,216,00,17,82,019,53*7E
$GPGSV,3,3,12,25,25,090,40,26,11,213,00,27,34,109,42,28,37,186,47*7D
$GPRMC,172357,A,0644.4911,S,03707.9458,W,008.4,048.2,030208,,,A*79
$GPVTG,048.2,T,,M,008.4,N,015.6,K,A*0D
$GPGGA,172412,0644.4562,S,03707.9377,W,1,05,03.4,00244.5,M,-011.9,M,,*65
$GPGSA,A,3,04,13,17,25,27,,,,,,,,05.0,03.4,03.6*07
$GPGSV,3,1,12,02,03,329,00,04,20,000,40,08,36,146,34,10,20,276,35*7C
$GPGSV,3,2,12,11,13,105,00,13,31,032,44,15,03,216,00,17,82,019,55*7A
$GPGSV,3,3,12,25,25,089,38,26,11,213,00,27,34,108,37,28,37,186,47*79
$GPRMC,172412,A,0644.4562,S,03707.9377,W,009.0,340.2,030208,,,A*73
$GPVTG,340.2,T,,M,009.0,N,016.7,K,A*01
$GPGGA,172427,0644.4109,S,03707.9569,W,1,06,01.2,00244.2,M,-011.9,M,,*63
$GPGSA,A,3,04,10,13,17,25,27,,,,,,,02.2,01.2,01.9*0A
$GPGSV,3,1,12,02,03,329,00,04,20,000,40,08,36,146,45,10,20,276,46*7E
$GPGSV,3,2,12,11,13,105,00,13,31,032,39,15,03,216,00,17,82,019,54*71
$GPGSV,3,3,12,25,25,089,46,26,11,213,00,27,34,108,48,28,37,185,35*7E
$GPRMC,172427,A,0644.4109,S,03707.9569,W,013.6,333.4,030208,,,A*7A
$GPVTG,333.4,T,,M,013.6,N,025.2,K,A*0B
$GPGGA,172442,0644.3759,S,03707.9964,W,1,06,01.2,00241.0,M,-011.9,M,,*62
$GPGSA,A,3,04,10,13,17,25,27,,,,,,,02.2,01.2,01.9*0A
$GPGSV,3,1,12,02,03,329,00,04,20,000,36,08,36,146,47,10,20,277,42*78
$GPGSV,3,2,12,11,13,105,00,13,31,032,46,15,03,216,00,17,82,020,52*75
$GPGSV,3,3,12,25,25,089,46,26,11,213,00,27,34,108,35,28,37,185,47*71
$GPRMC,172442,A,0644.3759,S,03707.9964,W,009.4,326.1,030208,,,A*74
$GPVTG,326.1,T,,M,009.4,N,017.4,K,A*04
$GPGGA,172457,0644.3385,S,03708.0163,W,1,05,01.4,00242.7,M,-011.9,M,,*6B
$GPGSA,A,3,04,10,13,17,25,,,,,,,,02.4,01.4,01.9*0F
$GPGSV,3,1,12,02,03,329,00,04,20,000,40,08,36,146,47,10,20,277,42*79
$GPGSV,3,2,12,11,13,105,00,13,31,032,39,15,04,216,00,17,82,020,54*7C
$GPGSV,3,3,12,25,25,089,48,26,11,213,00,27,34,108,30,28,37,185,43*7E
$GPRMC,172457,A,0644.3385,S,03708.0163,W,009.6,316.6,030208,,,A*7A
$GPVTG,316.6,T,,M,009.6,N,017.8,K,A*0E
$GPGGA,172512,0644.3105,S,03708.0455,W,1,05,01.5,00245.5,M,-011.9,M,,*65
$GPGSA,A,3,10,13,17,25,27,,,,,,,,02.5,01.5,01.9*0E
$GPGSV,3,1,12,02,03,329,00,04,20,000,33,08,36,146,48,10,20,277,34*73
$GPGSV,3,2,12,11,13,105,00,13,31,032,43,15,04,216,00,17,82,021,54*70
$GPGSV,3,3,12,25,25,089,49,26,11,213,00,27,34,108,35,28,36,185,46*7E
$GPRMC,172512,A,0644.3105,S,03708.0455,W,011.1,317.3,030208,,,A*7A
$GPVTG,317.3,T,,M,011.1,N,020.6,K,A*0E
$GPGGA,172532,0644.2745,S,03708.0929,W,1,06,01.2,00248.5,M,-011.9,M,,*6B
$GPGSA,A,3,04,10,13,17,25,27,,,,,,,02.2,01.2,01.9*0A
$GPGSV,3,1,12,02,03,329,00,04,20,000,35,08,36,145,50,10,20,277,40*7C
$GPGSV,3,2,12,11,13,105,00,13,30,032,41,15,04,216,00,17,82,021,53*74
$GPGSV,3,3,12,25,25,089,51,26,11,213,00,27,34,108,36,28,36,185,45*77
$GPRMC,172532,A,0644.2745,S,03708.0929,W,011.9,317.8,030208,,,A*7E
$GPVTG,317.8,T,,M,011.9,N,022.1,K,A*08
$GPGGA,172547,0644.2434,S,03708.1229,W,1,06,01.2,00250.9,M,-011.9,M,,*63
$GPGSA,A,3,04,10,13,17,25,27,,,,,,,02.2,01.2,01.9*0A
$GPGSV,3,1,12,02,03,329,00,04,20,000,39,08,36,145,46,10,20,277,35*75
$GPGSV,3,2,12,11,13,105,00,13,30,032,38,15,04,216,00,17,82,022,53*79
$GPGSV,3,3,12,25,25,089,51,26,12,213,00,27,34,107,34,28,36,185,35*7E
$GPRMC,172547,A,0644.2434,S,03708.1229,W,007.9,308.8,030208,,,A*7A
$GPVTG,308.8,T,,M,007.9,N,014.6,K,A*03
$GPGGA,172602,0644.2046,S,03708.1597,W,1,05,01.4,00252.7,M,-011.9,M,,*6B
$GPGSA,A,3,04,10,13,17,25,,,,,,,,02.4,01.4,01.9*0F
$GPGSV,3,1,12,02,03,329,00,04,20,001,43,08,37,145,47,10,20,277,39*75
$GPGSV,3,2,12,11,13,105,00,13,30,032,38,15,04,216,00,17,83,022,54*7F
$GPGSV,3,3,12,25,25,089,50,26,12,213,00,27,34,107,34,28,36,185,38*72
$GPRMC,172602,A,0644.2046,S,03708.1597,W,013.4,313.0,030208,,,A*71
$GPVTG,313.0,T,,M,013.4,N,024.9,K,A*05
$GPGGA,172617,0644.1709,S,03708.2029,W,1,06,01.2,00255.4,M,-011.9,M,,*62
$GPGSA,A,3,04,10,13,17,25,27,,,,,,,02.2,01.2,01.9*0A
$GPGSV,3,1,12,02,03,329,00,04,20,001,35,08,37,145,33,10,20,277,46*7F
$GPGSV,3,2,12,11,13,106,00,13,30,031,44,15,04,216,00,17,83,023,52*73
$GPGSV,3,3,12,25,25,088,35,26,12,213,00,27,34,107,34,28,36,185,48*77
$GPRMC,172617,A,0644.1709,S,03708.2029,W,013.5,284.7,030208,,,A*70
$GPVTG,284.7,T,,M,013.5,N,025.1,K,A*05
$GPGGA,172632,0644.1582,S,03708.2436,W,1,06,01.2,00256.2,M,-011.9,M,,*6B
$GPGSA,A,3,04,10,13,17,25,27,,,,,,,02.2,01.2,01.9*0A
$GPGSV,3,1,12,02,03,330,00,04,20,001,35,08,37,145,35,10,20,277,36*76
$GPGSV,3,2,12,11,13,106,00,13,30,031,45,15,04,216,00,17,83,023,52*72
$GPGSV,3,3,12,25,25,088,36,26,12,213,00,27,34,107,36,28,36,184,50*7E
$GPRMC,172632,A,0644.1582,S,03708.2436,W,007.0,287.3,030208,,,A*7B
$GPVTG,287.3,T,,M,007.0,N,013.0,K,A*06
$GPGGA,172647,0644.1383,S,03708.2796,W,1,05,01.5,00257.1,M,-011.9,M,,*61
$GPGSA,A,3,10,13,17,25,27,,,,,,,,02.5,01.5,01.9*0E
$GPGSV,3,1,12,02,03,330,00,04,20,001,31,08,37,145,49,10,20,278,46*71
$GPGSV,3,2,12,11,13,106,00,13,30,031,47,15,04,216,00,17,83,024,52*77
$GPGSV,3,3,12,25,25,088,41,26,12,213,00,27,34,107,37,28,36,184,47*79
$GPRMC,172647,A,0644.1383,S,03708.2796,W,011.3,297.0,030208,,,A*71
$GPVTG,297.0,T,,M,011.3,N,021.0,K,A*01
$GPGGA,172702,0644.1165,S,03708.3070,W,1,06,01.2,00256.9,M,-011.9,M,,*68
$GPGSA,A,3,04,10,13,17,25,27,,,,,,,02.3,01.2,01.9*0B
$GPGSV,3,1,12,02,03,330,00,04,20,001,36,08,37,145,47,10,20,278,43*7D
$GPGSV,3,2,12,11,13,106,00,13,30,031,42,15,04,216,00,17,83,024,52*72
$GPGSV,3,3,12,25,25,088,52,26,12,213,00,27,34,107,37,28,36,184,35*7E
$GPRMC,172702,A,0644.1165,S,03708.3070,W,008.1,313.0,030208,,,A*72
$GPVTG,313.0,T,,M,008.1,N,015.1,K,A*00
$GPGGA,172717,0644.0846,S,03708.3404,W,1,06,01.2,00255.4,M,-011.9,M,,*6C
$GPGSA,A,3,04,10,13,17,25,27,,,,,,,02.3,01.2,01.9*0B
$GPGSV,3,1,12,02,03,330,00,04,21,001,40,08,37,144,46,10,20,278,47*79
$GPGSV,3,2,12,11,13,106,00,13,30,031,38,15,04,216,00,17,83,025,52*7E
$GPGSV,3,3,12,25,25,088,48,26,12,213,00,27,34,107,45,28,36,184,32*77
$GPRMC,172717,A,0644.0846,S,03708.3404,W,012.5,315.0,030208,,,A*71
$GPVTG,315.0,T,,M,012.5,N,023.3,K,A*0E
$GPGGA,172732,0644.0523,S,03708.3716,W,1,06,01.2,00254.5,M,-011.9,M,,*65
$GPGSA,A,3,04,10,13,17,25,27,,,,,,,02.3,01.2,01.9*0B
$GPGSV,3,1,12,02,03,330,00,04,21,001,34,08,37,144,50,10,20,278,41*7B
$GPGSV,3,2,12,11,13,106,00,13,30,031,39,15,05,216,00,17,83,026,52*7D
$GPGSV,3,3,12,25,25,088,51,26,12,213,00,27,34,106,40,28,36,184,36*7F
$GPRMC,172732,A,0644.0523,S,03708.3716,W,010.3,317.7,030208,,,A*79
$GPVTG,317.7,T,,M,010.3,N,019.2,K,A*07
$GPGGA,172747,0644.0234,S,03708.4205,W,1,06,01.2,00253.4,M,-011.9,M,,*60
$GPGSA,A,3,04,10,13,17,25,27,,,,,,,02.3,01.2,01.9*0B
$GPGSV,3,1,12,02,03,330,00,04,21,001,34,08,37,144,42,10,20,278,45*7C
$GPGSV,3,2,12,11,13,106,00,13,29,031,45,15,05,216,00,17,83,026,52*7E
$GPGSV,3,3,12,25,24,088,41,26,12,213,00,27,34,106,41,28,36,184,49*76
$GPRMC,172747,A,0644.0234,S,03708.4205,W,016.4,299.5,030208,,,A*7E
$GPVTG,299.5,T,,M,016.4,N,030.4,K,A*0E
$GPGGA,172802,0644.0150,S,03708.4391,W,1,06,01.2,00253.2,M,-011.9,M,,*65
$GPGSA,A,3,04,10,13,17,25,27,,,,,,,02.3,01.2,01.9*0B
$GPGSV,3,1,12,02,03,330,00,04,21,001,33,08,37,144,45,10,20,278,45*7C
$GPGSV,3,2,12,11,13,106,00,13,29,031,46,15,05,216,00,17,84,027,52*7B
$GPGSV,3,3,12,25,24,088,41,26,12,213,00,27,34,106,38,28,36,184,47*76
$GPRMC,172802,A,0644.0150,S,03708.4391,W,004.2,286.0,030208,,,A*73
$GPVTG,286.0,T,,M,004.2,N,007.9,K,A*09
$GPGGA,172817,0643.9915,S,03708.4781,W,1,06,01.2,00253.9,M,-011.9,M,,*68
$GPGSA,A,3,04,10,13,17,25,27,,,,,,,02.3,01.2,01.9*0B
$GPGSV,3,1,12,02,03,330,00,04,21,001,41,08,37,144,41,10,20,278,42*7A
$GPGSV,3,2,12,11,13,106,00,13,29,031,43,15,05,216,00,17,84,028,51*72
$GPGSV,3,3,12,25,24,087,41,26,13,213,00,27,34,106,39,28,36,184,49*77
$GPRMC,172817,A,0643.9915,S,03708.4781,W,012.9,294.1,030208,,,A*7B
$GPVTG,294.1,T,,M,012.9,N,024.0,K,A*0F
$GPGGA,172832,0643.9752,S,03708.5188,W,1,06,01.2,00252.6,M,-011.9,M,,*62
$GPGSA,A,3,04,10,13,17,25,27,,,,,,,02.3,01.2,01.9*0B
$GPGSV,3,1,12,02,03,330,00,04,21,001,34,08,37,144,45,10,20,278,42*7C
$GPGSV,3,2,12,11,13,106,00,13,29,031,42,15,05,216,00,17,84,028,49*7A
$GPGSV,3,3,12,25,24,087,40,26,13,213,00,27,34,106,41,28,36,183,50*76
$GPRMC,172832,A,0643.9752,S,03708.5188,W,007.3,295.3,030208,,,A*72
$GPVTG,295.3,T,,M,007.3,N,013.5,K,A*03
$GPGGA,172847,0643.9571,S,03708.5632,W,1,06,01.2,00251.5,M,-011.9,M,,*65
$GPGSA,A,3,04,10,13,17,25,27,,,,,,,02.3,01.2,01.9*0B
$GPGSV,3,1,12,02,03,330,00,04,21,002,33,08,37,144,34,10,20,279,45*78
$GPGSV,3,2,12,11,13,107,00,13,29,031,46,15,05,216,00,17,84,029,52*74
$GPGSV,3,3,12,25,24,087,39,26,13,213,00,27,34,106,35,28,36,183,46*7C
$GPRMC,172847,A,0643.9571,S,03708.5632,W,017.1,290.6,030208,,,A*76
$GPVTG,290.6,T,,M,017.1,N,031.8,K,A*0D
$GPGGA,172902,0643.9321,S,03708.6249,W,1,05,01.5,00250.7,M,-011.9,M,,*6A
$GPGSA,A,3,10,13,17,25,27,,,,,,,,02.5,01.5,01.9*0E
$GPGSV,3,1,12,02,03,330,00,04,21,002,34,08,37,144,41,10,20,279,47*7F
$GPGSV,3,2,12,11,13,107,00,13,29,031,42,15,05,216,00,17,84,030,52*78
$GPGSV,3,3,12,25,24,087,40,26,13,214,00,27,34,106,35,28,36,183,47*74
$GPRMC,172902,A,0643.9321,S,03708.6249,W,014.7,290.5,030208,,,A*78
$GPVTG,290.5,T,,M,014.7,N,027.2,K,A*06
$GPGGA,172917,0643.8966,S,03708.6842,W,1,06,01.2,00250.3,M,-011.9,M,,*67
$GPGSA,A,3,04,10,13,17,25,27,,,,,,,02.3,01.2,01.9*0B
$GPGSV,3,1,12,02,03,330,00,04,21,002,41,08,37,143,45,10,20,279,41*78
$GPGSV,3,2,12,11,13,107,00,13,29,031,40,15,05,216,00,17,84,030,53*7B
$GPGSV,3,3,12,25,24,087,50,26,13,214,00,27,34,105,36,28,35,183,33*75
$GPRMC,172917,A,0643.8966,S,03708.6842,W,017.3,309.9,030208,,,A*7F
$GPVTG,309.9,T,,M,017.3,N,032.0,K,A*0A
$GPGGA,172932,0643.8592,S,03708.7410,W,1,06,01.2,00250.6,M,-011.9,M,,*68
$GPGSA,A,3,04,10,13,17,25,27,,,,,,,02.3,01.2,01.9*0B
$GPGSV,3,1,12,02,04,331,00,04,21,002,35,08,37,143,48,10,20,279,45*74
$GPGSV,3,2,12,11,13,107,00,13,29,031,40,15,05,216,00,17,84,031,52*7B
$GPGSV,3,3,12,25,24,087,39,26,13,214,00,27,34,105,35,28,35,183,46*7B
$GPRMC,172932,A,0643.8592,S,03708.7410,W,014.5,292.2,030208,,,A*78
$GPVTG,292.2,T,,M,014.5,N,026.9,K,A*0B
$GPGGA,172947,0643.8478,S,03708.8055,W,1,06,01.2,00251.3,M,-011.9,M,,*61
$GPGSA,A,3,04,10,13,17,25,27,,,,,,,02.3,01.2,01.9*0B
$GPGSV,3,1,12,02,04,331,00,04,21,002,38,08,37,143,40,10,20,279,42*76
$GPGSV,3,2,12,11,12,107,00,13,29,031,42,15,05,216,00,17,84,032,51*78
$GPGSV,3,3,12,25,24,087,40,26,13,214,00,27,34,105,42,28,35,183,51*73
$GPRMC,172947,A,0643.8478,S,03708.8055,W,012.9,278.1,030208,,,A*78
$GPVTG,278.1,T,,M,012.9,N,024.0,K,A*0D
$GPGGA,173002,0643.8429,S,03708.8549,W,1,06,01.2,00249.7,M,-011.9,M,,*69
$GPGSA,A,3,04,10,13,17,25,27,,,,,,,02.3,01.2,01.9*0B
$GPGSV,3,1,12,02,04,331,00,04,21,002,39,08,37,143,35,10,20,279,44*73
$GPGSV,3,2,12,11,12,107,00,13,28,031,43,15,05,216,00,17,84,033,49*70
$GPGSV,3,3,12,25,24,086,38,26,13,214,00,27,34,105,38,28,35,183,49*79
$GPRMC,173002,A,0643.8429,S,03708.8549,W,009.8,284.3,030208,,,A*77
$GPVTG,284.3,T,,M,009.8,N,018.1,K,A*09
$GPGGA,173017,0643.8396,S,03708.8864,W,1,06,01.2,00247.5,M,-011.9,M,,*60
$GPGSA,A,3,04,10,13,17,25,27,,,,,,,02.3,01.2,01.9*0B
$GPGSV,3,1,12,02,04,331,00,04,21,002,34,08,37,143,45,10,20,279,42*7F
$GPGSV,3,2,12,11,12,107,00,13,28,031,36,15,05,216,00,17,85,034,52*7E
$GPGSV,3,3,12,25,24,086,36,26,13,214,00,27,34,105,37,28,35,183,42*73
$GPRMC,173017,A,0643.8396,S,03708.8864,W,010.2,292.9,030208,,,A*7D
$GPVTG,292.9,T,,M,010.2,N,018.9,K,A*0E
$GPGGA,173032,0643.8298,S,03708.9267,W,1,06,01.2,00246.3,M,-011.9,M,,*67
$GPGSA,A,3,04,10,13,17,25,27,,,,,,,02.3,01.2,01.9*0B
$GPGSV,3,1,12,02,04,331,00,04,21,002,35,08,37,143,34,10,20,279,37*7A
$GPGSV,3,2,12,11,12,107,00,13,28,031,41,15,06,216,00,17,85,035,52*7C
$GPGSV,3,3,12,25,24,086,42,26,13,214,00,27,34,105,35,28,35,183,45*75
$GPRMC,173032,A,0643.8298,S,03708.9267,W,008.8,278.3,030208,,,A*70
$GPVTG,278.3,T,,M,008.8,N,016.4,K,A*00
$GPGGA,173047,0643.8079,S,03708.9741,W,1,06,01.2,00245.2,M,-011.9,M,,*6B
$GPGSA,A,3,04,10,13,17,25,27,,,,,,,02.3,01.2,01.9*0B
$GPGSV,3,1,12,02,04,331,00,04,21,002,34,08,37,143,36,10,20,280,40*7F
$GPGSV,3,2,12,11,12,107,00,13,28,031,41,15,06,216,00,17,85,036,53*7E
$GPGSV,3,3,12,25,24,086,41,26,13,214,00,27,33,105,39,28,35,182,42*7B
$GPRMC,173047,A,0643.8079,S,03708.9741,W,011.0,284.4,030208,,,A*7A
$GPVTG,284.4,T,,M,011.0,N,020.3,K,A*06
$GPGGA,173102,0643.7860,S,03709.0139,W,1,05,01.5,00244.3,M,-012.0,M,,*6B
$GPGSA,A,3,10,13,17,25,27,,,,,,,,02.5,01.5,01.9*0E
$GPGSV,3,1,12,02,04,331,00,04,21,002,33,08,37,142,44,10,20,280,38*73
$GPGSV,3,2,12,11,12,107,00,13,28,031,39,15,06,216,00,17,85,037,54*77
$GPGSV,3,3,12,25,24,086,51,26,14,214,00,27,33,104,45,28,35,182,34*76
$GPRMC,173102,A,0643.7860,S,03709.0139,W,010.7,310.1,030208,,,A*7B
$GPVTG,310.1,T,,M,010.7,N,019.9,K,A*09
$GPGGA,173117,0643.7497,S,03709.0234,W,1,06,01.2,00243.9,M,-012.0,M,,*6C
$GPGSA,A,3,04,10,13,17,25,27,,,,,,,02.3,01.2,01.9*0B
$GPGSV,3,1,12,02,04,331,00,04,21,002,45,08,37,142,41,10,20,280,36*79
$GPGSV,3,2,12,11,12,108,00,13,28,031,40,15,06,216,00,17,85,038,52*7F
$GPGSV,3,3,12,25,24,086,34,26,14,214,00,27,33,104,40,28,35,182,40*73
$GPRMC,173117,A,0643.7497,S,03709.0234,W,010.9,000.2,030208,,,A*7A
$GPVTG,000.2,T,,M,010.9,N,020.3,K,A*06
$GPGGA,173132,0643.7075,S,03709.0583,W,1,06,01.2,00244.2,M,-012.0,M,,*64
$GPGSA,A,3,04,10,13,17,25,27,,,,,,,02.3,01.2,01.9*0B
$GPGSV,3,1,12,02,04,331,00,04,21,003,42,08,37,142,41,10,20,280,40*7E
$GPGSV,3,2,12,11,12,108,00,13,28,031,41,15,06,216,00,17,85,039,51*7C
$GPGSV,3,3,12,25,24,086,50,26,14,214,00,27,33,104,36,28,35,182,31*76
$GPRMC,173132,A,0643.7075,S,03709.0583,W,014.6,304.7,030208,,,A*77
$GPVTG,304.7,T,,M,014.6,N,027.2,K,A*09
$GPGGA,173147,0643.7076,S,03709.1025,W,1,06,01.2,00243.8,M,-012.0,M,,*60
$GPGSA,A,3,04,10,13,17,25,27,,,,,,,02.3,01.2,01.9*0B
$GPGSV,3,1,12,02,04,331,00,04,22,003,43,08,37,142,33,10,20,280,46*7F
$GPGSV,3,2,12,11,12,108,00,13,28,030,52,15,06,216,00,17,85,040,51*71
$GPGSV,3,3,12,25,24,086,42,26,14,214,00,27,33,104,36,28,35,182,49*7A
$GPRMC,173147,A,0643.7076,S,03709.1025,W,009.6,266.4,030208,,,A*74
$GPVTG,266.4,T,,M,009.6,N,017.8,K,A*0A
$GPGGA,173202,0643.7149,S,03709.1412,W,1,06,01.2,00242.6,M,-012.0,M,,*60
$GPGSA,A,3,04,10,13,17,25,27,,,,,,,02.3,01.2,01.9*0B
$GPGSV,3,1,12,02,04,331,00,04,22,003,37,08,37,142,47,10,20,280,40*79
$GPGSV,3,2,12,11,12,108,00,13,28,030,38,15,06,216,00,17,85,041,51*7C
$GPGSV,3,3,12,25,24,085,35,26,14,214,00,27,33,104,32,28,35,182,50*75
$GPRMC,173202,A,0643.7149,S,03709.1412,W,012.9,256.4,030208,,,A*7D
$GPVTG,256.4,T,,M,012.9,N,023.8,K,A*0B
$GPGGA,173217,0643.7244,S,03709.1753,W,1,06,01.2,00240.7,M,-012.0,M,,*6F
$GPGSA,A,3,04,10,13,17,25,27,,,,,,,02.3,01.2,01.9*0B
$GPGSV,3,1,12,02,04,331,00,04,22,003,41,08,37,142,36,10,20,280,42*7C
$GPGSV,3,2,12,11,12,108,00,13,28,030,51,15,06,216,00,17,85,043,52*72
$GPGSV,3,3,12,25,24,085,38,26,14,214,00,27,33,104,43,28,35,182,51*7F
$GPRMC,173217,A,0643.7244,S,03709.1753,W,008.1,257.1,030208,,,A*76
$GPVTG,257.1,T,,M,008.1,N,015.1,K,A*00
$GPGGA,173232,0643.7410,S,03709.2211,W,1,06,01.2,00238.0,M,-012.0,M,,*67
$GPGSA,A,3,04,10,13,17,25,27,,,,,,,02.3,01.2,01.9*0B
$GPGSV,3,1,12,02,04,332,00,04,22,003,34,08,37,142,33,10,20,280,40*7A
$GPGSV,3,2,12,11,12,108,00,13,27,030,50,15,06,216,00,17,85,044,51*78
$GPGSV,3,3,12,25,24,085,35,26,14,214,00,27,33,104,45,28,35,182,51*74
$GPRMC,173232,A,0643.7410,S,03709.2211,W,014.6,253.9,030208,,,A*70
$GPVTG,253.9,T,,M,014.6,N,027.1,K,A*07
$GPGGA,173247,0643.7563,S,03709.2791,W,1,06,01.2,00236.3,M,-012.0,M,,*60
$GPGSA,A,3,04,10,13,17,25,27,,,,,,,02.3,01.2,01.9*0B
$GPGSV,3,1,12,02,04,332,00,04,22,003,38,08,37,142,34,10,20,281,36*71
$GPGSV,3,2,12,11,12,108,00,13,27,030,50,15,06,216,00,17,85,045,51*79
$GPGSV,3,3,12,25,24,085,40,26,14,214,00,27,33,103,45,28,35,182,51*71
$GPRMC,173247,A,0643.7563,S,03709.2791,W,013.5,258.0,030208,,,A*7C
$GPVTG,258.0,T,,M,013.5,N,025.0,K,A*02
$GPGGA,173302,0643.7680,S,03709.3313,W,1,06,01.2,00235.7,M,-012.0,M,,*66
$GPGSA,A,3,04,10,13,17,25,27,,,,,,,02.3,01.2,01.9*0B
$GPGSV,3,1,12,02,04,332,00,04,22,003,35,08,37,141,36,10,20,281,36*7D
$GPGSV,3,2,12,11,12,108,00,13,27,030,46,15,06,216,00,17,86,047,52*7C
$GPGSV,3,3,12,25,24,085,33,26,14,214,00,27,33,103,43,28,35,181,51*70
$GPRMC,173302,A,0643.7680,S,03709.3313,W,013.3,252.2,030208,,,A*73
$GPVTG,252.2,T,,M,013.3,N,024.7,K,A*0A
$GPGGA,173317,0643.7799,S,03709.3874,W,1,06,01.3,00234.4,M,-012.0,M,,*62
$GPGSA,A,3,04,10,13,17,25,27,,,,,,,02.3,01.3,01.9*0A
$GPGSV,3,1,12,02,04,332,00,04,22,003,34,08,37,141,41,10,20,281,44*79
$GPGSV,3,2,12,11,12,108,00,13,27,030,48,15,07,216,00,17,86,048,50*7E
$GPGSV,3,3,12,25,24,085,39,26,14,214,00,27,33,103,41,28,34,181,50*78
$GPRMC,173317,A,0643.7799,S,03709.3874,W,014.3,263.2,030208,,,A*71
$GPVTG,263.2,T,,M,014.3,N,026.6,K,A*0C
$GPGGA,173332,0643.7821,S,03709.4517,W,1,06,01.3,00232.0,M,-012.0,M,,*64
$GPGSA,A,3,04,10,13,17,25,27,,,,,,,02.3,01.3,01.9*0A
$GPGSV,3,1,12,02,04,332,00,04,22,003,41,08,37,141,34,10,20,281,42*7F
$GPGSV,3,2,12,11,12,108,00,13,27,030,39,15,07,216,00,17,86,050,51*70
$GPGSV,3,3,12,25,24,085,41,26,14,214,00,27,33,103,42,28,34,181,51*75
$GPRMC,173332,A,0643.7821,S,03709.4517,W,014.8,274.2,030208,,,A*78
$GPVTG,274.2,T,,M,014.8,N,027.4,K,A*02
$GPGGA,173347,0643.7745,S,03709.5096,W,1,06,01.3,00231.2,M,-012.0,M,,*67
$GPGSA,A,3,04,10,13,17,25,27,,,,,,,02.3,01.3,01.9*0A
$GPGSV,3,1,12,02,04,332,00,04,22,003,34,08,38,141,34,10,20,281,39*7E
$GPGSV,3,2,12,11,12,109,00,13,27,030,40,15,07,216,00,17,86,051,51*7E
$GPGSV,3,3,12,25,24,085,42,26,15,214,00,27,33,103,40,28,34,181,51*75
$GPRMC,173347,A,0643.7745,S,03709.5096,W,013.5,279.0,030208,,,A*7F
$GPVTG,279.0,T,,M,013.5,N,025.1,K,A*00
$GPGGA,173402,0643.7715,S,03709.5556,W,1,06,01.3,00227.3,M,-012.0,M,,*6B
$GPGSA,A,3,04,10,13,17,25,27,,,,,,,02.3,01.3,01.9*0A
$GPGSV,3,1,12,02,04,332,00,04,22,003,41,08,38,141,32,10,20,281,39*7A
$GPGSV,3,2,12,11,12,109,00,13,27,030,42,15,07,216,00,17,86,053,52*7D
$GPGSV,3,3,12,25,24,084,40,26,15,214,00,27,33,103,43,28,34,181,50*74
$GPRMC,173402,A,0643.7715,S,03709.5556,W,010.1,274.9,030208,,,A*76
$GPVTG,274.9,T,,M,010.1,N,018.7,K,A*0B
$GPGGA,173417,0643.7723,S,03709.6061,W,1,06,01.3,00226.6,M,-012.0,M,,*6C
$GPGSA,A,3,04,10,13,17,25,27,,,,,,,02.3,01.3,01.9*0A
$GPGSV,3,1,12,02,04,332,00,04,22,004,34,08,38,141,45,10,20,281,36*70
$GPGSV,3,2,12,11,12,109,00,13,27,030,42,15,07,216,00,17,86,054,52*7A
$GPGSV,3,3,12,25,24,084,41,26,15,214,00,27,33,103,42,28,34,181,41*74
$GPRMC,173417,A,0643.7723,S,03709.6061,W,017.0,297.6,030208,,,A*71
$GPVTG,297.6,T,,M,017.0,N,031.5,K,A*06
$GPGGA,173432,0643.7376,S,03709.6572,W,1,06,01.3,00225.7,M,-012.0,M,,*6A
$GPGSA,A,3,04,10,13,17,25,27,,,,,,,02.3,01.3,01.9*0A
$GPGSV,3,1,12,02,04,332,00,04,22,004,36,08,38,141,35,10,20,281,43*77
$GPGSV,3,2,12,11,12,109,00,13,27,030,35,15,07,216,00,17,86,056,52*78
$GPGSV,3,3,12,25,24,084,38,26,15,214,00,27,33,102,41,28,34,181,36*78
$GPRMC,173432,A,0643.7376,S,03709.6572,W,014.2,301.9,030208,,,A*75
$GPVTG,301.9,T,,M,014.2,N,026.4,K,A*01
$GPGGA,173447,0643.6961,S,03709.7004,W,1,06,01.3,00227.1,M,-012.0,M,,*64
$GPGSA,A,3,04,10,13,17,25,27,,,,,,,02.3,01.3,01.9*0A
$GPGSV,3,1,12,02,05,332,00,04,22,004,36,08,38,140,33,10,20,282,37*71
$GPGSV,3,2,12,11,12,109,00,13,26,030,35,15,07,216,00,17,86,058,51*74
$GPGSV,3,3,12,25,24,084,45,26,15,214,00,27,33,102,45,28,34,181,39*79
$GPRMC,173447,A,0643.6961,S,03709.7004,W,016.4,316.3,030208,,,A*77
$GPVTG,316.3,T,,M,016.4,N,030.5,K,A*0F
$GPGGA,173502,0643.6643,S,03709.7288,W,1,05,01.6,00227.8,M,-012.0,M,,*62
$GPGSA,A,3,10,13,17,25,27,,,,,,,,02.5,01.6,01.9*0D
$GPGSV,3,1,12,02,05,332,00,04,22,004,32,08,38,140,35,10,20,282,45*76
$GPGSV,3,2,12,11,12,109,00,13,26,030,34,15,07,216,00,17,86,060,52*7D
$GPGSV,3,3,12,25,24,084,44,26,15,214,00,27,33,102,46,28,34,181,40*75
$GPRMC,173502,A,0643.6643,S,03709.7288,W,007.8,310.0,030208,,,A*77
$GPVTG,310.0,T,,M,007.8,N,014.4,K,A*01
$GPGGA,173517,0643.6537,S,03709.7604,W,1,06,01.3,00229.0,M,-012.0,M,,*66
$GPGSA,A,3,04,10,13,17,25,27,,,,,,,02.3,01.3,01.9*0A
$GPGSV,3,1,12,02,05,332,00,04,22,004,34,08,38,140,42,10,20,282,46*73
$GPGSV,3,2,12,11,12,109,00,13,26,030,47,15,07,217,00,17,86,062,51*79
$GPGSV,3,3,12,25,24,084,38,26,15,214,00,27,33,102,42,28,34,180,49*72
$GPRMC,173517,A,0643.6537,S,03709.7604,W,009.7,260.6,030208,,,A*72
$GPVTG,260.6,T,,M,009.7,N,018.0,K,A*08
$GPGGA,173532,0643.6476,S,03709.7925,W,1,06,01.3,00231.2,M,-012.0,M,,*62
$GPGSA,A,3,04,10,13,17,25,27,,,,,,,02.3,01.3,02.0*00
$GPGSV,3,1,12,02,05,332,00,04,22,004,33,08,38,140,35,10,20,282,46*74
$GPGSV,3,2,12,11,12,109,00,13,26,030,38,15,07,217,00,17,86,063,52*73
$GPGSV,3,3,12,25,24,084,47,26,15,214,00,27,33,102,42,28,34,180,36*72
$GPRMC,173532,A,0643.6476,S,03709.7925,W,008.4,299.6,030208,,,A*79
$GPVTG,299.6,T,,M,008.4,N,015.5,K,A*04
$GPGGA,173547,0643.6165,S,03709.8416,W,1,06,01.3,00232.8,M,-012.0,M,,*6C
$GPGSA,A,3,04,10,13,17,25,27,,,,,,,02.4,01.3,02.0*07
$GPGSV,3,1,12,02,05,333,00,04,22,004,33,08,38,140,47,10,20,282,43*75
$GPGSV,3,2,12,11,12,109,00,13,26,030,41,15,07,217,00,17,86,065,50*79
$GPGSV,3,3,12,25,24,084,36,26,15,214,00,27,33,102,42,28,34,180,45*70
$GPRMC,173547,A,0643.6165,S,03709.8416,W,017.9,293.2,030208,,,A*73
$GPVTG,293.2,T,,M,017.9,N,033.1,K,A*09
$GPGGA,173602,0643.5874,S,03709.9036,W,1,06,01.3,00245.6,M,-012.0,M,,*6D
$GPGSA,A,3,04,10,13,17,25,27,,,,,,,02.4,01.3,02.0*07
$GPGSV,3,1,12,02,05,333,00,04,23,004,39,08,38,140,35,10,20,282,42*7A
$GPGSV,3,2,12,11,12,109,00,13,26,030,46,15,08,217,00,17,86,068,51*7D
$GPGSV,3,3,12,25,24,083,42,26,15,214,00,27,33,101,42,28,34,180,47*75
$GPRMC,173602,A,0643.5874,S,03709.9036,W,018.4,284.8,030208,,,A*72
$GPVTG,284.8,T,,M,018.4,N,034.0,K,A*01
$GPGGA,173617,0643.5771,S,03709.9444,W,1,05,01.6,00248.9,M,-012.0,M,,*66
$GPGSA,A,3,10,13,17,25,27,,,,,,,,02.5,01.6,02.0*07
$GPGSV,3,1,12,02,05,333,00,04,23,004,31,08,38,140,47,10,20,282,44*71
$GPGSV,3,2,12,11,12,110,00,13,26,030,43,15,08,217,00,17,86,070,52*7A
$GPGSV,3,3,12,25,24,083,33,26,15,214,00,27,33,101,36,28,34,180,48*7F
$GPRMC,173617,A,0643.5771,S,03709.9444,W,010.1,289.6,030208,,,A*73
$GPVTG,289.6,T,,M,010.1,N,018.8,K,A*09
$GPGGA,173632,0643.5551,S,03709.9936,W,1,06,01.3,00248.0,M,-012.0,M,,*66
$GPGSA,A,3,04,10,13,17,25,27,,,,,,,02.4,01.3,02.0*07
$GPGSV,3,1,12,02,05,333,00,04,23,004,35,08,38,139,39,10,20,282,43*75
$GPGSV,3,2,12,11,12,110,00,13,26,030,40,15,08,217,00,17,86,072,51*78
$GPGSV,3,3,12,25,24,083,40,26,16,214,00,27,33,101,43,28,34,180,46*74
$GPRMC,173632,A,0643.5551,S,03709.9936,W,012.1,294.1,030208,,,A*75
$GPVTG,294.1,T,,M,012.1,N,022.5,K,A*04
$GPGGA,173647,0643.5468,S,03710.0354,W,1,06,01.3,00242.4,M,-012.0,M,,*6E
$GPGSA,A,3,04,10,13,17,25,27,,,,,,,02.4,01.3,02.0*07
$GPGSV,3,1,12,02,05,333,00,04,23,004,34,08,38,139,48,10,20,283,46*76
$GPGSV,3,2,12,11,12,110,00,13,26,030,39,15,08,217,00,17,86,074,52*73
$GPGSV,3,3,12,25,24,083,36,26,16,214,00,27,33,101,35,28,34,180,45*77
$GPRMC,173647,A,0643.5468,S,03710.0354,W,008.1,289.3,030208,,,A*76
$GPVTG,289.3,T,,M,008.1,N,015.0,K,A*00
$GPGGA,173702,0643.5359,S,03710.0757,W,1,06,01.3,00242.4,M,-012.0,M,,*6C
$GPGSA,A,3,04,10,13,17,25,27,,,,,,,02.4,01.3,02.0*07
$GPGSV,3,1,12,02,05,333,00,04,23,005,37,08,38,139,46,10,20,283,44*78
$GPGSV,3,2,12,11,12,110,00,13,26,030,44,15,08,217,00,17,86,076,50*79
$GPGSV,3,3,12,25,23,083,41,26,16,214,00,27,33,101,41,28,34,180,50*77
$GPRMC,173702,A,0643.5359,S,03710.0757,W,012.3,289.6,030208,,,A*78
$GPVTG,289.6,T,,M,012.3,N,022.8,K,A*00
$GPGGA,173717,0643.5273,S,03710.1317,W,1,06,01.3,00241.0,M,-012.0,M,,*67
$GPGSA,A,3,04,10,13,17,25,27,,,,,,,02.4,01.3,02.0*07
$GPGSV,3,1,12,02,05,333,00,04,23,005,35,08,38,139,45,10,20,283,45*78
$GPGSV,3,2,12,11,12,110,00,13,25,030,45,15,08,217,00,17,86,078,51*74
$GPGSV,3,3,12,25,23,083,45,26,16,214,00,27,33,101,40,28,34,179,49*7C
$GPRMC,173717,A,0643.5273,S,03710.1317,W,013.6,288.4,030208,,,A*73
$GPVTG,288.4,T,,M,013.6,N,025.3,K,A*0B
$GPGGA,173732,0643.5009,S,03710.1925,W,1,06,01.3,00241.5,M,-012.0,M,,*61
$GPGSA,A,3,04,10,13,17,25,27,,,,,,,02.4,01.3,02.0*07
$GPGSV,3,1,12,02,05,333,00,04,23,005,34,08,38,139,46,10,20,283,43*7C
$GPGSV,3,2,12,11,12,110,00,13,25,030,40,15,08,217,00,17,86,080,52*75
$GPGSV,3,3,12,25,23,083,37,26,16,214,00,27,33,101,36,28,33,179,49*7F
$GPRMC,173732,A,0643.5009,S,03710.1925,W,017.4,289.7,030208,,,A*74
$GPVTG,289.7,T,,M,017.4,N,032.3,K,A*09
$GPGGA,173747,0643.4880,S,03710.2377,W,1,06,01.3,00240.0,M,-012.0,M,,*61
$GPGSA,A,3,04,10,13,17,25,27,,,,,,,02.4,01.3,02.0*07
$GPGSV,3,1,12,02,05,333,00,04,23,005,40,08,38,139,32,10,20,283,39*71
$GPGSV,3,2,12,11,12,110,00,13,25,030,38,15,08,217,00,17,86,083,52*79
$GPGSV,3,3,12,25,23,083,35,26,16,214,00,27,33,100,35,28,33,179,50*77
$GPRMC,173747,A,0643.4880,S,03710.2377,W,012.6,284.6,030208,,,A*7B
$GPVTG,284.6,T,,M,012.6,N,023.3,K,A*02
$GPGGA,173802,0643.4901,S,03710.2924,W,1,06,01.3,00238.9,M,-012.0,M,,*6D
$GPGSA,A,3,04,10,13,17,25,27,,,,,,,02.4,01.3,02.0*07
$GPGSV,3,1,12,02,05,333,00,04,23,005,41,08,38,139,39,10,20,283,42*77
$GPGSV,3,2,12,11,12,110,00,13,25,030,51,15,08,217,00,17,86,085,49*7A
$GPGSV,3,3,12,25,23,082,41,26,16,214,00,27,33,100,44,28,33,179,47*75
$GPRMC,173802,A,0643.4901,S,03710.2924,W,015.7,260.4,030208,,,A*7F
$GPVTG,260.4,T,,M,015.7,N,029.2,K,A*07
$GPGGA,173817,0643.4935,S,03710.3543,W,1,06,01.3,00238.5,M,-012.0,M,,*6E
$GPGSA,A,3,04,10,13,17,25,27,,,,,,,02.4,01.3,02.0*07
$GPGSV,3,1,12,02,05,333,00,04,23,005,35,08,38,138,36,10,20,283,41*79
$GPGSV,3,2,12,11,11,110,00,13,25,029,45,15,08,217,00,17,86,087,51*7F
$GPGSV,3,3,12,25,23,082,41,26,16,215,00,27,33,100,41,28,33,179,49*7F
$GPRMC,173817,A,0643.4935,S,03710.3543,W,016.1,280.8,030208,,,A*77
$GPVTG,280.8,T,,M,016.1,N,029.9,K,A*0B
$GPGGA,173832,0643.4738,S,03710.4095,W,1,05,01.6,00228.0,M,-012.0,M,,*61
$GPGSA,A,3,10,13,17,25,27,,,,,,,,02.6,01.6,02.0*04
$GPGSV,3,1,12,02,05,333,00,04,23,005,30,08,38,138,46,10,20,283,44*7E
$GPGSV,3,2,12,11,11,110,00,13,25,029,35,15,08,217,00,17,86,089,52*75
$GPGSV,3,3,12,25,23,082,34,26,16,215,00,27,33,100,41,28,33,179,46*72
$GPRMC,173832,A,0643.4738,S,03710.4095,W,011.8,294.5,030208,,,A*7C
$GPVTG,294.5,T,,M,011.8,N,021.8,K,A*04
$GPGGA,173847,0643.4586,S,03710.4641,W,1,05,01.5,00225.8,M,-012.0,M,,*6D
$GPGSA,A,3,04,10,13,17,25,,,,,,,,02.6,01.5,02.1*07
$GPGSV,3,1,12,02,05,334,00,04,23,005,37,08,38,138,46,10,19,284,45*72
$GPGSV,3,2,12,11,11,111,00,13,25,029,42,15,09,217,00,17,86,091,51*7F
$GPGSV,3,3,12,25,23,082,35,26,16,215,00,27,33,100,31,28,33,179,50*73
$GPRMC,173847,A,0643.4586,S,03710.4641,W,016.1,289.4,030208,,,A*75
$GPVTG,289.4,T,,M,016.1,N,029.9,K,A*0E
$GPGGA,173902,0643.4359,S,03710.5204,W,1,06,01.3,00227.8,M,-012.0,M,,*6A
$GPGSA,A,3,04,10,13,17,25,27,,,,,,,02.4,01.3,02.0*07
$GPGSV,3,1,12,02,05,334,00,04,23,005,33,08,38,138,47,10,19,284,46*74
$GPGSV,3,2,12,11,11,111,00,13,25,029,43,15,09,217,00,17,86,094,51*7B
$GPGSV,3,3,12,25,23,082,40,26,17,215,00,27,33,100,40,28,33,179,51*77
$GPRMC,173902,A,0643.4359,S,03710.5204,W,014.9,287.4,030208,,,A*71
$GPVTG,287.4,T,,M,014.9,N,027.7,K,A*0A
$GPGGA,173917,0643.4248,S,03710.5672,W,1,06,01.3,00229.3,M,-012.0,M,,*6F
$GPGSA,A,3,04,10,13,17,25,27,,,,,,,02.4,01.3,02.0*07
$GPGSV,3,1,12,02,05,334,00,04,23,005,40,08,38,138,45,10,19,284,44*70
$GPGSV,3,2,12,11,11,111,00,13,25,029,45,15,09,217,00,17,86,096,50*7E
$GPGSV,3,3,12,25,23,082,42,26,17,215,00,27,33,100,40,28,33,179,50*74
$GPRMC,173917,A,0643.4248,S,03710.5672,W,006.4,289.1,030208,,,A*74
$GPVTG,289.1,T,,M,006.4,N,011.9,K,A*04
$GPGGA,173932,0643.4026,S,03710.6168,W,1,06,01.3,00232.1,M,-012.0,M,,*65
$GPGSA,A,3,04,10,13,17,25,27,,,,,,,02.4,01.3,02.0*07
$GPGSV,3,1,12,02,06,334,00,04,23,005,34,08,38,138,49,10,19,284,45*7D
$GPGSV,3,2,12,11,11,111,00,13,24,029,41,15,09,217,00,17,86,098,51*74
$GPGSV,3,3,12,25,23,082,35,26,17,215,00,27,33,099,35,28,33,178,48*7F
$GPRMC,173932,A,0643.4026,S,03710.6168,W,017.9,288.7,030208,,,A*7C
$GPVTG,288.7,T,,M,017.9,N,033.3,K,A*04
$GPGGA,173947,0643.3826,S,03710.6801,W,1,05,01.6,00234.4,M,-012.0,M,,*6B
$GPGSA,A,3,04,10,13,17,25,,,,,,,,02.6,01.6,02.1*04
$GPGSV,3,1,12,02,06,334,00,04,23,006,35,08,38,138,47,10,19,284,43*77
$GPGSV,3,2,12,11,11,111,00,13,24,029,40,15,09,217,00,17,86,100,52*76
$GPGSV,3,3,12,25,23,082,42,26,17,215,00,27,33,099,31,28,33,178,46*75
$GPRMC,173947,A,0643.3826,S,03710.6801,W,015.8,288.7,030208,,,A*74
$GPVTG,288.7,T,,M,015.8,N,029.3,K,A*0C
$GPGGA,174002,0643.3646,S,03710.7334,W,1,06,01.3,00232.9,M,-012.0,M,,*6D
$GPGSA,A,3,04,10,13,17,25,27,,,,,,,02.4,01.3,02.0*07
$GPGSV,3,1,12,02,06,334,00,04,23,006,32,08,38,137,43,10,19,284,39*76
$GPGSV,3,2,12,11,11,111,00,13,24,029,42,15,09,217,00,17,86,102,48*7D
$GPGSV,3,3,12,25,23,081,46,26,17,215,00,27,33,099,39,28,33,178,39*72
$GPRMC,174002,A,0643.3646,S,03710.7334,W,012.2,299.2,030208,,,A*77
$GPVTG,299.2,T,,M,012.2,N,022.7,K,A*0B
$GPGGA,174017,0643.3335,S,03710.7856,W,1,06,01.3,00230.3,M,-012.0,M,,*6F
$GPGSA,A,3,04,10,13,17,25,27,,,,,,,02.4,01.3,02.0*07
$GPGSV,3,1,12,02,06,334,00,04,24,006,37,08,38,137,42,10,19,284,45*7E
$GPGSV,3,2,12,11,11,111,00,13,24,029,40,15,09,217,00,17,86,104,49*78
$GPGSV,3,3,12,25,23,081,49,26,17,215,00,27,33,099,41,28,33,178,39*72
$GPRMC,174017,A,0643.3335,S,03710.7856,W,015.0,302.9,030208,,,A*70
$GPVTG,302.9,T,,M,015.0,N,027.8,K,A*0C
$GPGGA,174032,0643.2871,S,03710.8410,W,1,06,01.3,00228.5,M,-012.0,M,,*6C
$GPGSA,A,3,04,10,13,17,25,27,,,,,,,02.4,01.3,02.0*07
$GPGSV,3,1,12,02,06,334,00,04,24,006,35,08,38,137,46,10,19,284,46*7B
$GPGSV,3,2,12,11,11,111,00,13,24,029,39,15,09,217,00,17,86,106,51*7D
$GPGSV,3,3,12,25,23,081,47,26,17,215,00,27,33,099,42,28,33,178,36*70
$GPRMC,174032,A,0643.2871,S,03710.8410,W,016.6,305.6,030208,,,A*71
$GPVTG,305.6,T,,M,016.6,N,030.8,K,A*07
$GPGGA,174047,0643.2535,S,03710.8939,W,1,06,01.3,00227.7,M,-012.0,M,,*68
$GPGSA,A,3,04,10,13,17,25,27,,,,,,,02.4,01.3,02.0*07
$GPGSV,3,1,12,02,06,334,00,04,24,006,39,08,38,137,48,10,19,285,39*70
$GPGSV,3,2,12,11,11,111,00,13,24,029,37,15,09,217,00,17,86,108,52*7E
$GPGSV,3,3,12,25,23,081,47,26,17,215,00,27,33,099,44,28,33,178,30*70
$GPRMC,174047,A,0643.2535,S,03710.8939,W,013.9,297.6,030208,,,A*78
$GPVTG,297.6,T,,M,013.9,N,025.7,K,A*0C
$GPGGA,174102,0643.2182,S,03710.9426,W,1,06,01.3,00225.8,M,-012.0,M,,*6F
$GPGSA,A,3,04,10,13,17,25,27,,,,,,,02.4,01.3,02.0*07
$GPGSV,3,1,12,02,06,334,00,04,24,006,33,08,38,137,48,10,19,285,42*76
$GPGSV,3,2,12,11,11,111,00,13,24,029,38,15,09,217,00,17,86,110,52*78
$GPGSV,3,3,12,25,23,081,49,26,17,215,00,27,33,099,42,28,33,178,32*7A
$GPRMC,174102,A,0643.2182,S,03710.9426,W,014.7,305.7,030208,,,A*70
$GPVTG,305.7,T,,M,014.7,N,027.2,K,A*09
$GPGGA,174117,0643.1921,S,03710.9894,W,1,05,01.7,00225.4,M,-012.0,M,,*67
$GPGSA,A,3,10,13,17,25,27,,,,,,,,02.7,01.7,02.1*05
$GPGSV,3,1,12,02,06,334,00,04,24,006,32,08,38,137,48,10,19,285,41*74
$GPGSV,3,2,12,11,11,112,00,13,24,029,41,15,09,217,00,17,86,111,52*74
$GPGSV,3,3,12,25,23,081,34,26,17,215,00,27,33,098,39,28,33,178,46*7E
$GPRMC,174117,A,0643.1921,S,03710.9894,W,013.2,287.3,030208,,,A*7E
$GPVTG,287.3,T,,M,013.2,N,024.4,K,A*01
$GPGGA,174132,0643.1817,S,03711.0369,W,1,06,01.3,00225.0,M,-012.0,M,,*66
$GPGSA,A,3,04,10,13,17,25,27,,,,,,,02.4,01.3,02.0*07
$GPGSV,3,1,12,02,06,334,00,04,24,006,40,08,39,137,43,10,19,285,38*75
$GPGSV,3,2,12,11,11,112,00,13,24,029,43,15,10,217,00,17,86,113,51*7F
$GPGSV,3,3,12,25,23,081,43,26,17,215,00,27,33,098,44,28,32,178,49*7A
$GPRMC,174132,A,0643.1817,S,03711.0369,W,005.9,268.8,030208,,,A*7A
$GPVTG,268.8,T,,M,005.9,N,011.0,K,A*05
$GPGGA,174147,0643.1828,S,03711.0901,W,1,06,01.3,00223.6,M,-012.0,M,,*6C
$GPGSA,A,3,04,10,13,17,25,27,,,,,,,02.4,01.3,02.0*07
$GPGSV,3,1,12,02,06,334,00,04,24,006,42,08,39,136,41,10,19,285,42*79
$GPGSV,3,2,12,11,11,112,00,13,24,029,40,15,10,217,00,17,86,115,41*7B
$GPGSV,3,3,12,25,23,081,42,26,18,215,00,27,33,098,41,28,32,177,51*77
$GPRMC,174147,A,0643.1828,S,03711.0901,W,024.0,273.7,030208,,,A*7F
$GPVTG,273.7,T,,M,024.0,N,044.6,K,A*0C
$GPGGA,174202,0643.1712,S,03711.2061,W,1,06,01.3,00219.3,M,-012.0,M,,*69
$GPGSA,A,3,04,10,13,17,25,27,,,,,,,02.5,01.3,02.0*06
$GPGSV,3,1,12,02,06,335,00,04,24,006,40,08,39,136,41,10,19,285,41*79
$GPGSV,3,2,12,11,11,112,00,13,23,029,45,15,10,217,00,17,86,116,47*7C
$GPGSV,3,3,12,25,23,080,42,26,18,215,00,27,33,098,45,28,32,177,50*73
$GPRMC,174202,A,0643.1712,S,03711.2061,W,030.5,276.0,030208,,,A*74
$GPVTG,276.0,T,,M,030.5,N,056.4,K,A*0F
$GPGGA,174217,0643.1610,S,03711.3291,W,1,06,01.3,00217.4,M,-012.0,M,,*6B
$GPGSA,A,3,04,10,13,17,25,27,,,,,,,02.5,01.3,02.0*06
$GPGSV,3,1,12,02,06,335,00,04,24,006,41,08,39,136,36,10,19,285,46*7F
$GPGSV,3,2,12,11,11,112,00,13,23,029,46,15,10,217,00,17,86,118,52*75
$GPGSV,3,3,12,25,23,080,41,26,18,215,00,27,33,098,36,28,32,177,48*7D
$GPRMC,174217,A,0643.1610,S,03711.3291,W,029.1,276.0,030208,,,A*73
$GPVTG,276.0,T,,M,029.1,N,053.8,K,A*0A
$GPGGA,174232,0643.1518,S,03711.4382,W,1,06,01.3,00215.5,M,-012.0,M,,*60
$GPGSA,A,3,04,10,13,17,25,27,,,,,,,02.5,01.3,02.0*06
$GPGSV,3,1,12,02,06,335,00,04,24,007,40,08,39,136,38,10,19,285,45*72
$GPGSV,3,2,12,11,11,112,00,13,23,029,45,15,10,217,00,17,86,119,49*7D
$GPGSV,3,3,12,25,23,080,43,26,18,215,00,27,33,098,36,28,32,177,50*76
$GPRMC,174232,A,0643.1518,S,03711.4382,W,020.5,273.0,030208,,,A*73
$GPVTG,273.0,T,,M,020.5,N,038.0,K,A*07
$GPGGA,174247,0643.1391,S,03711.5338,W,1,06,01.3,00215.0,M,-012.0,M,,*60
$GPGSA,A,3,04,10,13,17,25,27,,,,,,,02.5,01.3,02.0*06
$GPGSV,3,1,12,02,06,335,00,04,24,007,41,08,39,136,35,10,19,286,44*7C
$GPGSV,3,2,12,11,11,112,00,13,23,029,40,15,10,217,00,17,86,121,50*7B
$GPGSV,3,3,12,25,23,080,37,26,18,215,00,27,33,098,33,28,32,177,46*77
$GPRMC,174247,A,0643.1391,S,03711.5338,W,028.0,274.8,030208,,,A*74
$GPVTG,274.8,T,,M,028.0,N,052.0,K,A*09
$GPGGA,174302,0643.1182,S,03711.6048,W,1,06,01.4,00226.7,M,-012.0,M,,*67
$GPGSA,A,3,04,10,13,17,25,27,,,,,,,02.5,01.4,02.0*01
$GPGSV,3,1,12,02,06,335,00,04,24,007,42,08,39,136,41,10,19,286,42*7A
$GPGSV,3,2,12,11,11,112,00,13,23,029,43,15,10,217,00,17,85,122,49*70
$GPGSV,3,3,12,25,23,080,43,26,18,215,00,27,33,097,44,28,32,177,50*7C
$GPRMC,174302,A,0643.1182,S,03711.6048,W,014.2,274.5,030208,,,A*73
$GPVTG,274.5,T,,M,014.2,N,026.3,K,A*09
$GPGGA,174317,0643.1156,S,03711.6836,W,1,06,01.4,00225.1,M,-012.0,M,,*6E
$GPGSA,A,3,04,10,13,17,25,27,,,,,,,02.5,01.4,02.1*00
$GPGSV,3,1,12,02,06,335,00,04,24,007,46,08,39,136,41,10,19,286,42*7E
$GPGSV,3,2,12,11,11,112,00,13,23,029,45,15,10,217,00,17,85,123,43*7D
$GPGSV,3,3,12,25,23,080,43,26,18,215,00,27,33,097,44,28,32,177,51*7D
$GPRMC,174317,A,0643.1156,S,03711.6836,W,022.1,273.9,030208,,,A*72
$GPVTG,273.9,T,,M,022.1,N,041.0,K,A*06
$GPGGA,174332,0643.1158,S,03711.7653,W,1,06,01.4,00216.3,M,-012.0,M,,*69
$GPGSA,A,3,04,10,13,17,25,27,,,,,,,02.5,01.4,02.1*00
$GPGSV,3,1,12,02,06,335,00,04,24,007,46,08,39,135,35,10,19,286,42*7E
$GPGSV,3,2,12,11,11,112,00,13,23,029,46,15,10,218,00,17,85,125,44*70
$GPGSV,3,3,12,25,23,080,40,26,18,215,00,27,33,097,41,28,32,177,51*7B
$GPRMC,174332,A,0643.1158,S,03711.7653,W,019.2,274.8,030208,,,A*7A
$GPVTG,274.8,T,,M,019.2,N,035.6,K,A*0E
$GPGGA,174347,0643.1088,S,03711.8533,W,1,06,01.4,00212.6,M,-012.0,M,,*6C
$GPGSA,A,3,04,10,13,17,25,27,,,,,,,02.5,01.4,02.1*00
$GPGSV,3,1,12,02,06,335,00,04,24,007,36,08,39,135,33,10,19,286,45*78
$GPGSV,3,2,12,11,11,113,00,13,23,029,33,15,10,218,00,17,85,126,47*73
$GPGSV,3,3,12,25,23,080,41,26,18,215,00,27,33,097,40,28,32,177,49*72
$GPRMC,174347,A,0643.1088,S,03711.8533,W,020.8,273.8,030208,,,A*79
$GPVTG,273.8,T,,M,020.8,N,038.6,K,A*04
$GPGGA,174402,0643.1076,S,03711.9041,W,1,06,01.4,00199.3,M,-012.0,M,,*6F
$GPGSA,A,3,04,10,13,17,25,27,,,,,,,02.5,01.4,02.1*00
$GPGSV,3,1,12,02,06,335,00,04,24,007,37,08,39,135,40,10,19,286,35*7A
$GPGSV,3,2,12,11,11,113,00,13,23,029,42,15,10,218,00,17,85,127,42*71
$GPGSV,3,3,12,25,23,080,42,26,18,215,00,27,33,097,43,28,32,176,50*7B
$GPRMC,174402,A,0643.1076,S,03711.9041,W,010.8,282.6,030208,,,A*7C
$GPVTG,282.6,T,,M,010.8,N,020.0,K,A*08
$GPGGA,174417,0643.1111,S,03711.9426,W,1,06,01.4,00213.7,M,-012.0,M,,*6B
$GPGSA,A,3,04,10,13,17,25,27,,,,,,,02.5,01.4,02.1*00
$GPGSV,3,1,12,02,07,335,00,04,25,007,34,08,39,135,35,10,19,286,42*7B
$GPGSV,3,2,12,11,11,113,00,13,22,029,35,15,11,218,00,17,85,128,45*79
$GPGSV,3,3,12,25,23,079,42,26,18,215,00,27,33,097,45,28,32,176,50*7B
$GPRMC,174417,A,0643.1111,S,03711.9426,W,010.2,267.8,030208,,,A*72
$GPVTG,267.8,T,,M,010.2,N,019.0,K,A*0D
$GPGGA,174432,0643.1130,S,03711.9745,W,1,06,01.4,00211.3,M,-012.0,M,,*6F
$GPGSA,A,3,04,10,13,17,25,27,,,,,,,02.5,01.4,02.1*00
$GPGSV,3,1,12,02,07,335,00,04,25,007,39,08,39,135,40,10,19,286,41*77
$GPGSV,3,2,12,11,11,113,00,13,22,029,41,15,11,218,00,17,85,129,49*77
$GPGSV,3,3,12,25,23,079,41,26,19,215,00,27,33,097,35,28,32,176,49*76
$GPRMC,174432,A,0643.1130,S,03711.9745,W,000.7,267.5,030208,,,A*79
$GPVTG,267.5,T,,M,000.7,N,001.3,K,A*0E
$GPGGA,174447,0643.1123,S,03712.0013,W,1,06,01.4,00209.5,M,-012.0,M,,*6E
$GPGSA,A,3,04,10,13,17,25,27,,,,,,,02.5,01.4,02.1*00
$GPGSV,3,1,12,02,07,335,00,04,25,007,35,08,39,135,35,10,19,287,39*77
$GPGSV,3,2,12,11,11,113,00,13,22,029,35,15,11,218,00,17,85,130,47*72
$GPGSV,3,3,12,25,23,079,39,26,19,215,00,27,33,096,40,28,32,176,49*7A
$GPRMC,174447,A,0643.1123,S,03712.0013,W,006.7,259.9,030208,,,A*70
$GPVTG,259.9,T,,M,006.7,N,012.4,K,A*0C
$GPGGA,174502,0643.0911,S,03712.0398,W,1,06,01.4,00215.0,M,-012.0,M,,*6E
$GPGSA,A,3,04,10,13,17,25,27,,,,,,,02.5,01.4,02.1*00
$GPGSV,3,1,12,02,07,335,00,04,25,008,36,08,39,135,33,10,19,287,36*72
$GPGSV,3,2,12,11,11,113,00,13,22,029,36,15,11,218,00,17,85,131,47*70
$GPGSV,3,3,12,25,22,079,45,26,19,215,00,27,33,096,41,28,32,176,49*71
$GPRMC,174502,A,0643.0911,S,03712.0398,W,007.2,280.2,030208,,,A*73
$GPVTG,280.2,T,,M,007.2,N,013.5,K,A*07
$GPGGA,174517,0643.0983,S,03712.0707,W,1,06,01.4,00214.9,M,-012.0,M,,*6B
$GPGSA,A,3,04,10,13,17,25,27,,,,,,,02.5,01.4,02.1*00
$GPGSV,3,1,12,02,07,336,00,04,25,008,43,08,39,134,48,10,19,287,39*71
$GPGSV,3,2,12,11,11,113,00,13,22,029,33,15,11,218,00,17,85,132,51*71
$GPGSV,3,3,12,25,22,079,39,26,19,215,00,27,33,096,48,28,32,176,51*7A
$GPRMC,174517,A,0643.0983,S,03712.0707,W,003.5,221.1,030208,,,A*75
$GPVTG,221.1,T,,M,003.5,N,006.5,K,A*08
$GPGGA,174532,0643.1131,S,03712.0736,W,1,05,11.0,00215.2,M,-012.0,M,,*62
$GPGSA,A,3,04,13,17,25,27,,,,,,,,18.2,11.0,14.4*0A
$GPGSV,3,1,12,02,07,336,00,04,25,008,46,08,39,134,51,10,19,287,31*74
$GPGSV,3,2,12,11,11,113,00,13,22,029,34,15,11,218,00,17,85,133,51*77
$GPGSV,3,3,12,25,22,079,46,26,19,216,00,27,33,096,48,28,32,176,51*71
$GPRMC,174532,A,0643.1131,S,03712.0736,W,000.9,199.6,030208,,,A*78
$GPVTG,199.6,T,,M,000.9,N,001.7,K,A*05
$GPGGA,174547,0643.1343,S,03712.0745,W,1,06,01.4,00215.5,M,-012.0,M,,*62
$GPGSA,A,3,04,10,13,17,25,27,,,,,,,02.5,01.4,02.1*00
$GPGSV,3,1,12,02,07,336,00,04,25,008,36,08,39,134,49,10,19,287,34*7F
$GPGSV,3,2,12,11,10,113,00,13,22,029,36,15,11,218,00,17,84,134,52*71
$GPGSV,3,3,12,25,22,079,46,26,19,216,00,27,33,096,48,28,32,176,40*71
$GPRMC,174547,A,0643.1343,S,03712.0745,W,005.7,145.7,030208,,,A*72
$GPVTG,145.7,T,,M,005.7,N,010.7,K,A*0E
$GPGGA,174602,0643.1449,S,03712.0598,W,1,06,01.4,00215.0,M,-012.0,M,,*6A
$GPGSA,A,3,04,10,13,17,25,27,,,,,,,02.5,01.4,02.1*00
$GPGSV,3,1,12,02,07,336,00,04,25,008,45,08,39,134,35,10,19,287,33*77
$GPGSV,3,2,12,11,10,113,00,13,22,029,34,15,11,218,00,17,84,135,52*72
$GPGSV,3,3,12,25,22,079,42,26,19,216,00,27,33,096,49,28,31,176,42*75
$GPRMC,174602,A,0643.1449,S,03712.0598,W,002.2,159.5,030208,,,A*72
$GPVTG,159.5,T,,M,002.2,N,004.2,K,A*03
$GPGGA,174617,0643.1530,S,03712.0309,W,1,06,01.4,00214.8,M,-012.0,M,,*66
$GPGSA,A,3,04,10,13,17,25,27,,,,,,,02.5,01.4,02.1*00
$GPGSV,3,1,12,02,07,336,00,04,25,008,46,08,39,134,35,10,19,287,37*70
$GPGSV,3,2,12,11,10,113,00,13,22,028,47,15,11,218,00,17,84,136,52*74
$GPGSV,3,3,12,25,22,078,37,26,19,216,00,27,33,096,47,28,31,175,41*78
$GPRMC,174617,A,0643.1530,S,03712.0309,W,003.3,129.5,030208,,,A*70
$GPVTG,129.5,T,,M,003.3,N,006.1,K,A*05
$GPGGA,174632,0643.1609,S,03712.0182,W,1,06,01.4,00214.7,M,-012.0,M,,*66
$GPGSA,A,3,04,10,13,17,25,27,,,,,,,02.5,01.4,02.1*00
$GPGSV,3,1,12,02,07,336,00,04,25,008,35,08,39,134,48,10,19,287,34*7D
$GPGSV,3,2,12,11,10,114,00,13,22,028,36,15,11,218,00,17,84,137,53*75
$GPGSV,3,3,12,25,22,078,47,26,19,216,00,27,33,095,47,28,31,175,37*7D
$GPRMC,174632,A,0643.1609,S,03712.0182,W,004.3,148.9,030208,,,A*73
$GPVTG,148.9,T,,M,004.3,N,008.0,K,A*06
$GPGGA,174647,0643.1850,S,03712.0180,W,1,05,01.6,00215.8,M,-012.0,M,,*6B
$GPGSA,A,3,04,10,17,25,27,,,,,,,,02.7,01.6,02.1*02
$GPGSV,3,1,12,02,07,336,00,04,25,008,34,08,39,134,50,10,19,287,46*70
$GPGSV,3,2,12,11,10,114,00,13,21,028,32,15,11,218,00,17,84,137,53*72
$GPGSV,3,3,12,25,22,078,35,26,19,216,00,27,33,095,46,28,31,175,41*78
$GPRMC,174647,A,0643.1850,S,03712.0180,W,008.0,166.3,030208,,,A*78
$GPVTG,166.3,T,,M,008.0,N,014.9,K,A*0B
$GPGGA,174702,0643.1894,S,03712.0035,W,1,05,01.6,00216.3,M,-012.0,M,,*64
$GPGSA,A,3,04,10,17,25,27,,,,,,,,02.7,01.6,02.1*02
$GPGSV,3,1,12,02,07,336,00,04,25,008,45,08,39,133,41,10,19,288,40*78
$GPGSV,3,2,12,11,10,114,00,13,21,028,33,15,12,218,00,17,84,138,53*7F
$GPGSV,3,3,12,25,22,078,34,26,20,216,00,27,33,095,49,28,31,175,32*78
$GPRMC,174702,A,0643.1894,S,03712.0035,W,000.4,151.0,030208,,,A*74
$GPVTG,151.0,T,,M,000.4,N,000.7,K,A*0B
$GPGGA,174717,0643.1900,S,03712.0035,W,1,06,01.4,00217.0,M,-012.0,M,,*6F
$GPGSA,A,3,04,10,13,17,25,27,,,,,,,02.6,01.4,02.1*03
$GPGSV,3,1,12,02,07,336,00,04,25,008,42,08,39,133,38,10,19,288,40*71
$GPGSV,3,2,12,11,10,114,00,13,21,028,34,15,12,218,00,17,84,139,52*78
$GPGSV,3,3,12,25,22,078,33,26,20,216,00,27,33,095,47,28,31,175,32*71
$GPRMC,174717,A,0643.1900,S,03712.0035,W,001.1,199.7,030208,,,A*7B
$GPVTG,199.7,T,,M,001.1,N,002.1,K,A*08
$GPGGA,174732,0643.1923,S,03712.0061,W,1,05,01.6,00217.4,M,-012.0,M,,*6D
$GPGSA,A,3,04,10,17,25,27,,,,,,,,02.7,01.6,02.1*02
$GPGSV,3,1,12,02,07,336,00,04,25,008,45,08,39,133,43,10,19,288,36*7B
$GPGSV,3,2,12,11,10,114,00,13,21,028,32,15,12,218,00,17,84,140,54*76
$GPGSV,3,3,12,25,22,078,39,26,20,216,00,27,33,095,48,28,31,175,32*74
$GPRMC,174732,A,0643.1923,S,03712.0061,W,000.2,234.9,030208,,,A*74
$GPVTG,234.9,T,,M,000.2,N,000.4,K,A*07
$GPGGA,174747,0643.1921,S,03712.0082,W,1,06,01.4,00217.2,M,-012.0,M,,*67
$GPGSA,A,3,04,10,13,17,25,27,,,,,,,02.6,01.4,02.1*03
$GPGSV,3,1,12,02,07,336,00,04,25,009,38,08,39,133,42,10,19,288,41*71
$GPGSV,3,2,12,11,10,114,00,13,21,028,36,15,12,218,00,17,84,140,54*72
$GPGSV,3,3,12,25,22,078,45,26,20,216,00,27,33,095,48,28,31,175,37*7A
$GPRMC,174747,A,0643.1921,S,03712.0082,W,001.6,272.8,030208,,,A*7F
$GPVTG,272.8,T,,M,001.6,N,002.9,K,A*0E
$GPGGA,174802,0643.1871,S,03712.0093,W,1,06,01.4,00217.4,M,-012.0,M,,*6B
$GPGSA,A,3,04,10,13,17,25,27,,,,,,,02.6,01.4,02.1*03
$GPGSV,3,1,12,02,07,336,00,04,25,009,36,08,39,133,46,10,19,288,43*79
$GPGSV,3,2,12,11,10,114,00,13,21,028,36,15,12,218,00,17,83,141,55*75
$GPGSV,3,3,12,25,22,078,42,26,20,216,00,27,33,095,50,28,31,175,43*77
$GPRMC,174802,A,0643.1871,S,03712.0093,W,000.4,272.0,030208,,,A*7E
$GPVTG,272.0,T,,M,000.4,N,000.8,K,A*06
$GPGGA,174817,0643.1854,S,03712.0084,W,1,04,07.3,00218.1,M,-012.0,M,,*67
$GPGSA,A,3,10,17,25,27,,,,,,,,,08.4,07.3,04.1*0A
$GPGSV,3,1,12,02,07,336,00,04,25,009,30,08,39,133,40,10,19,288,42*78
$GPGSV,3,2,12,11,10,114,00,13,21,028,31,15,12,218,00,17,83,141,55*72
$GPGSV,3,3,12,25,22,077,42,26,20,216,00,27,33,094,41,28,31,175,46*7C
$GPRMC,174817,A,0643.1854,S,03712.0084,W,002.1,229.3,030208,,,A*71
$GPVTG,229.3,T,,M,002.1,N,004.0,K,A*00
$GPGGA,174832,0643.1921,S,03712.0084,W,1,05,01.6,00217.5,M,-012.0,M,,*6A
$GPGSA,A,3,04,10,17,25,27,,,,,,,,02.7,01.6,02.1*02
$GPGSV,3,1,12,02,07,337,00,04,26,009,35,08,39,133,42,10,19,288,45*7A
$GPGSV,3,2,12,11,10,114,00,13,21,028,32,15,12,218,00,17,83,142,52*75
$GPGSV,3,3,12,25,22,077,44,26,20,216,00,27,33,094,40,28,31,174,46*7A
$GPRMC,174832,A,0643.1921,S,03712.0084,W,000.6,188.7,030208,,,A*7C
$GPVTG,188.7,T,,M,000.6,N,001.2,K,A*0E
$GPGGA,174847,0643.1879,S,03712.0064,W,1,06,01.4,00217.4,M,-012.0,M,,*6A
$GPGSA,A,3,04,10,13,17,25,27,,,,,,,02.6,01.4,02.1*03
$GPGSV,3,1,12,02,08,337,00,04,26,009,36,08,39,132,42,10,19,288,46*74
$GPGSV,3,2,12,11,10,114,00,13,21,028,34,15,12,218,00,17,83,143,51*71
$GPGSV,3,3,12,25,22,077,43,26,20,216,00,27,33,094,37,28,31,174,52*78
$GPRMC,174847,A,0643.1879,S,03712.0064,W,000.5,188.7,030208,,,A*7F
$GPVTG,188.7,T,,M,000.5,N,001.0,K,A*0F
$GPGGA,174907,0643.1923,S,03712.0065,W,1,04,07.5,00217.8,M,-012.0,M,,*69
$GPGSA,A,3,10,17,25,27,,,,,,,,,08.7,07.5,04.3*0D
$GPGSV,3,1,12,02,08,337,00,04,26,009,30,08,39,132,31,10,19,289,37*71
$GPGSV,3,2,12,11,10,115,00,13,20,028,26,15,12,218,00,17,83,143,52*71
$GPGSV,3,3,12,25,22,077,35,26,20,216,00,27,33,094,43,28,31,174,46*7F
$GPRMC,174907,A,0643.1923,S,03712.0065,W,001.3,188.7,030208,,,A*72
$GPVTG,188.7,T,,M,001.3,N,002.4,K,A*0F
$GPGGA,174922,0643.1797,S,03712.0054,W,1,06,01.4,00218.6,M,-012.0,M,,*69
$GPGSA,A,3,04,10,13,17,25,27,,,,,,,02.6,01.4,02.2*00
$GPGSV,3,1,12,02,08,337,00,04,26,009,34,08,39,132,39,10,19,289,43*7E
$GPGSV,3,2,12,11,10,115,00,13,20,028,36,15,12,218,00,17,83,144,52*77
$GPGSV,3,3,12,25,22,077,45,26,20,216,00,27,33,094,46,28,31,174,51*7B
$GPRMC,174922,A,0643.1797,S,03712.0054,W,002.9,188.7,030208,,,A*7F
$GPVTG,188.7,T,,M,002.9,N,005.5,K,A*00
$GPGGA,174937,0643.1793,S,03712.0043,W,1,05,01.6,00219.3,M,-012.0,M,,*6A
$GPGSA,A,3,04,10,17,25,27,,,,,,,,02.7,01.6,02.2*01
$GPGSV,3,1,12,02,08,337,00,04,26,009,34,08,40,132,34,10,19,289,41*7F
$GPGSV,3,2,12,11,10,115,00,13,20,028,30,15,12,218,00,17,83,144,51*72
$GPGSV,3,3,12,25,22,077,40,26,20,216,00,27,33,094,48,28,31,174,49*79
$GPRMC,174937,A,0643.1793,S,03712.0043,W,002.7,188.6,030208,,,A*76
$GPVTG,188.6,T,,M,002.7,N,005.0,K,A*0A
$GPGGA,174952,0643.1803,S,03712.0036,W,1,05,01.6,00220.7,M,-012.0,M,,*63
$GPGSA,A,3,04,10,17,25,27,,,,,,,,02.7,01.6,02.2*01
$GPGSV,3,1,12,02,08,337,00,04,26,009,34,08,40,132,35,10,19,289,45*7A
$GPGSV,3,2,12,11,10,115,00,13,20,028,32,15,13,218,00,17,83,145,52*73
$GPGSV,3,3,12,25,22,077,36,26,21,216,00,27,33,093,37,28,31,174,50*7E
$GPRMC,174952,A,0643.1803,S,03712.0036,W,001.9,187.9,030208,,,A*7C
$GPVTG,187.9,T,,M,001.9,N,003.5,K,A*04
$GPGGA,175012,0643.1851,S,03712.0023,W,1,05,01.7,00216.3,M,-012.0,M,,*6C
$GPGSA,A,3,04,10,17,25,27,,,,,,,,02.8,01.7,02.2*0F
$GPGSV,3,1,12,02,08,337,00,04,26,009,35,08,40,132,41,10,19,289,34*7E
$GPGSV,3,2,12,11,10,115,00,13,20,028,29,15,13,218,00,17,82,146,52*7B
$GPGSV,3,3,12,25,22,077,42,26,21,216,00,27,33,093,35,28,31,174,50*7F
$GPRMC,175012,A,0643.1851,S,03712.0023,W,000.3,187.9,030208,,,A*78
$GPVTG,187.9,T,,M,000.3,N,000.6,K,A*0F
$GPGGA,175027,0643.1825,S,03712.0023,W,1,05,01.9,00213.8,M,-012.0,M,,*69
$GPGSA,A,3,10,13,17,25,27,,,,,,,,03.1,01.9,02.4*09
$GPGSV,3,1,12,02,08,337,00,04,26,009,28,08,40,131,33,10,19,289,39*79
$GPGSV,3,2,12,11,10,115,00,13,20,028,34,15,13,219,00,17,82,146,52*76
$GPGSV,3,3,12,25,22,076,36,26,21,216,00,27,33,093,42,28,30,174,48*75
$GPRMC,175027,A,0643.1825,S,03712.0023,W,001.2,187.9,030208,,,A*7D
$GPVTG,187.9,T,,M,001.2,N,002.2,K,A*09
$GPGGA,175042,0643.1804,S,03712.0015,W,1,04,08.0,00215.2,M,-012.0,M,,*61
$GPGSA,A,3,10,17,25,27,,,,,,,,,09.4,08.0,04.8*0E
$GPGSV,3,1,12,02,08,337,00,04,26,010,27,08,40,131,36,10,19,289,41*74
$GPGSV,3,2,12,11,10,115,00,13,20,028,33,15,13,219,00,17,82,147,53*71
$GPGSV,3,3,12,25,22,076,41,26,21,216,00,27,33,093,40,28,30,174,48*77
$GPRMC,175042,A,0643.1804,S,03712.0015,W,000.8,187.9,030208,,,A*73
$GPVTG,187.9,T,,M,000.8,N,001.6,K,A*05
$GPGGA,175057,0643.1836,S,03712.0005,W,1,04,02.0,00214.8,M,-012.0,M,,*64
$GPGSA,A,2,04,17,25,27,,,,,,,,,02.2,02.0,00.9*08
$GPGSV,3,1,12,02,08,337,00,04,26,010,46,08,40,131,35,10,19,290,34*7A
$GPGSV,3,2,12,11,10,115,00,13,20,028,34,15,13,219,00,17,82,147,55*70
$GPGSV,3,3,12,25,22,076,41,26,21,216,00,27,33,093,41,28,30,173,39*77
$GPRMC,175057,A,0643.1836,S,03712.0005,W,000.9,183.8,030208,,,A*73
$GPVTG,183.8,T,,M,000.9,N,001.8,K,A*0F
$GPGGA,175112,0643.1781,S,03712.0075,W,1,04,02.0,00215.2,M,-012.0,M,,*6B
$GPGSA,A,2,04,17,25,27,,,,,,,,,02.2,02.0,00.9*08
$GPGSV,3,1,12,02,08,337,00,04,26,010,37,08,40,131,32,10,19,290,31*7E
$GPGSV,3,2,12,11,10,115,00,13,20,028,32,15,13,219,00,17,82,147,55*76
$GPGSV,3,3,12,25,22,076,45,26,21,217,00,27,33,093,42,28,30,173,45*7A
$GPRMC,175112,A,0643.1781,S,03712.0075,W,001.7,271.3,030208,,,A*7D
$GPVTG,271.3,T,,M,001.7,N,003.2,K,A*0D
$GPGGA,175127,0643.1770,S,03712.0124,W,1,06,01.5,00215.3,M,-012.0,M,,*63
$GPGSA,A,3,04,10,13,17,25,27,,,,,,,02.7,01.5,02.2*00
$GPGSV,3,1,12,02,08,337,00,04,26,010,40,08,40,131,37,10,19,290,35*7F
$GPGSV,3,2,12,11,10,115,00,13,19,028,35,15,13,219,00,17,82,148,51*70
$GPGSV,3,3,12,25,22,076,35,26,21,217,00,27,33,093,46,28,30,173,46*7A
$GPRMC,175127,A,0643.1770,S,03712.0124,W,000.7,269.9,030208,,,A*72
$GPVTG,269.9,T,,M,000.7,N,001.3,K,A*0C
$GPGGA,175142,0643.1556,S,03712.0093,W,1,06,01.5,00215.6,M,-012.0,M,,*6E
$GPGSA,A,3,04,10,13,17,25,27,,,,,,,02.7,01.5,02.2*00
$GPGSV,3,1,12,02,08,338,00,04,26,010,35,08,40,131,35,10,19,290,34*71
$GPGSV,3,2,12,11,10,116,00,13,19,028,39,15,13,219,00,17,82,148,52*7C
$GPGSV,3,3,12,25,22,076,41,26,21,217,00,27,33,092,42,28,30,173,34*79
$GPRMC,175142,A,0643.1556,S,03712.0093,W,002.7,012.2,030208,,,A*7D
$GPVTG,012.2,T,,M,002.7,N,005.1,K,A*0D
$GPGGA,175157,0643.1588,S,03711.9837,W,1,06,01.5,00215.0,M,-012.0,M,,*63
$GPGSA,A,3,04,10,13,17,25,27,,,,,,,02.7,01.5,02.2*00
$GPGSV,3,1,12,02,08,338,00,04,26,010,47,08,40,131,42,10,19,290,38*78
$GPGSV,3,2,12,11,10,116,00,13,19,028,39,15,13,219,00,17,82,149,54*7B
$GPGSV,3,3,12,25,22,076,45,26,21,217,00,27,33,092,47,28,30,173,30*7C
$GPRMC,175157,A,0643.1588,S,03711.9837,W,007.0,104.2,030208,,,A*72
$GPVTG,104.2,T,,M,007.0,N,013.1,K,A*0E
$GPGGA,175212,0643.1664,S,03711.9658,W,1,04,01.8,00214.9,M,-012.0,M,,*60
$GPGSA,A,3,04,10,17,27,,,,,,,,,03.1,01.8,02.6*0B
$GPGSV,3,1,12,02,08,338,00,04,26,010,46,08,40,130,38,10,19,290,36*7B
$GPGSV,3,2,12,11,10,116,00,13,19,028,34,15,13,219,00,17,81,149,54*75
