$GPGGA,115434.000,-3003.1914,N,-5126.2728,E,1,08,0.8,46.1,M,,,
$GPRMC,115434.000,A,-3003.1914,N,-5126.2728,E,0.0,261.0,000070,,,A
$GPGGA,115434.139,-3003.1914,N,-5126.2728,E,1,08,0.8,46.1,M,,,
$GPRMC,115434.139,A,-3003.1914,N,-5126.2728,E,0.0,261.0,000070,,,A
$GPGGA,115434.279,-3003.1914,N,-5126.2734,E,1,08,0.8,46.1,M,,,
$GPRMC,115434.279,A,-3003.1914,N,-5126.2734,E,0.0,261.0,000070,,,A
$GPGGA,115434.419,-3003.1920,N,-5126.2746,E,1,08,0.8,46.1,M,,,
$GPRMC,115434.419,A,-3003.1920,N,-5126.2746,E,1.6,261.0,000070,,,A
$GPGGA,115439.086,-3003.1920,N,-5126.2764,E,1,08,0.8,46.1,M,,,
$GPRMC,115439.086,A,-3003.1920,N,-5126.2764,E,3.8,261.0,000070,,,A
$GPGGA,115442.197,-3003.1920,N,-5126.2788,E,1,08,0.8,46.1,M,,,
$GPRMC,115442.197,A,-3003.1920,N,-5126.2788,E,3.8,261.0,000070,,,A
$GPGGA,115446.163,-3003.1926,N,-5126.2818,E,1,08,0.8,46.1,M,,,
$GPRMC,115446.163,A,-3003.1926,N,-5126.2818,E,5.4,265.0,000070,,,A
$GPGGA,115449.274,-3003.1926,N,-5126.2854,E,1,08,0.8,46.1,M,,,
$GPRMC,115449.274,A,-3003.1926,N,-5126.2854,E,7.6,265.0,000070,,,A
$GPGGA,115452.410,-3003.1932,N,-5126.2902,E,1,08,0.8,46.1,M,,,
$GPRMC,115452.410,A,-3003.1932,N,-5126.2902,E,7.6,261.0,000070,,,A
$GPGGA,115455.545,-3003.1938,N,-5126.2950,E,1,08,0.8,46.1,M,,,
$GPRMC,115455.545,A,-3003.1938,N,-5126.2950,E,9.7,262.0,000070,,,A
$GPGGA,115458.362,-3003.1944,N,-5126.3004,E,1,08,0.8,46.1,M,,,
$GPRMC,115458.362,A,-3003.1944,N,-5126.3004,E,11.3,263.0,000070,,,A
$GPGGA,115500.968,-3003.1950,N,-5126.3064,E,1,08,0.8,46.1,M,,,
$GPRMC,115500.968,A,-3003.1950,N,-5126.3064,E,13.5,264.0,000070,,,A
$GPGGA,115503.644,-3003.1956,N,-5126.3136,E,1,08,0.8,46.1,M,,,
$GPRMC,115503.644,A,-3003.1956,N,-5126.3136,E,13.5,264.0,000070,,,A
$GPGGA,115506.320,-3003.1962,N,-5126.3208,E,1,08,0.8,46.1,M,,,
$GPRMC,115506.320,A,-3003.1962,N,-5126.3208,E,15.1,265.0,000070,,,A
$GPGGA,115509.049,-3003.1968,N,-5126.3292,E,1,08,0.8,46.1,M,,,
$GPRMC,115509.049,A,-3003.1968,N,-5126.3292,E,17.3,263.0,000070,,,A
$GPGGA,115511.493,-3003.1980,N,-5126.3376,E,1,08,0.8,46.1,M,,,
$GPRMC,115511.493,A,-3003.1980,N,-5126.3376,E,17.3,263.0,000070,,,A
$GPGGA,115514.264,-3003.1986,N,-5126.3472,E,1,08,0.8,46.1,M,,,
$GPRMC,115514.264,A,-3003.1986,N,-5126.3472,E,19.4,264.0,000070,,,A
$GPGGA,115516.772,-3003.1998,N,-5126.3568,E,1,08,0.8,46.1,M,,,
$GPRMC,115516.772,A,-3003.1998,N,-5126.3568,E,21.1,262.0,000070,,,A
$GPGGA,115519.333,-3003.2010,N,-5126.3676,E,1,08,0.8,46.1,M,,,
$GPRMC,115519.333,A,-3003.2010,N,-5126.3676,E,21.1,265.0,000070,,,A
$GPGGA,115521.883,-3003.2016,N,-5126.3784,E,1,08,0.8,46.1,M,,,
$GPRMC,115521.883,A,-3003.2016,N,-5126.3784,E,23.2,265.0,000070,,,A
$GPGGA,115524.488,-3003.2028,N,-5126.3904,E,1,08,0.8,46.1,M,,,
$GPRMC,115524.488,A,-3003.2028,N,-5126.3904,E,24.8,263.0,000070,,,A
$GPGGA,115526.893,-3003.2040,N,-5126.4024,E,1,08,0.8,46.1,M,,,
$GPRMC,115526.893,A,-3003.2040,N,-5126.4024,E,27.0,264.0,000070,,,A
$GPGGA,115529.348,-3003.2052,N,-5126.4156,E,1,08,0.8,46.1,M,,,
$GPRMC,115529.348,A,-3003.2052,N,-5126.4156,E,27.0,264.0,000070,,,A
$GPGGA,115531.913,-3003.2064,N,-5126.4294,E,1,08,0.8,46.1,M,,,
$GPRMC,115531.913,A,-3003.2064,N,-5126.4294,E,29.2,263.0,000070,,,A
$GPGGA,115534.318,-3003.2082,N,-5126.4432,E,1,08,0.8,46.1,M,,,
$GPRMC,115534.318,A,-3003.2082,N,-5126.4432,E,30.8,263.0,000070,,,A
$GPGGA,115536.757,-3003.2094,N,-5126.4582,E,1,08,0.8,46.1,M,,,
$GPRMC,115536.757,A,-3003.2094,N,-5126.4582,E,30.8,265.0,000070,,,A
$GPGGA,115539.292,-3003.2106,N,-5126.4738,E,1,08,0.8,46.1,M,,,
$GPRMC,115539.292,A,-3003.2106,N,-5126.4738,E,32.9,264.0,000070,,,A
$GPGGA,115541.778,-3003.2124,N,-5126.4900,E,1,08,0.8,46.1,M,,,
$GPRMC,115541.778,A,-3003.2124,N,-5126.4900,E,34.6,263.0,000070,,,A
$GPGGA,115544.211,-3003.2142,N,-5126.5068,E,1,08,0.8,46.1,M,,,
$GPRMC,115544.211,A,-3003.2142,N,-5126.5068,E,34.6,264.0,000070,,,A
$GPGGA,115546.723,-3003.2154,N,-5126.5242,E,1,08,0.8,46.1,M,,,
$GPRMC,115546.723,A,-3003.2154,N,-5126.5242,E,36.7,264.0,000070,,,A
$GPGGA,115549.110,-3003.2172,N,-5126.5416,E,1,08,0.8,46.1,M,,,
$GPRMC,115549.110,A,-3003.2172,N,-5126.5416,E,38.9,263.0,000070,,,A
$GPGGA,115551.533,-3003.2190,N,-5126.5602,E,1,08,0.8,46.1,M,,,
$GPRMC,115551.533,A,-3003.2190,N,-5126.5602,E,40.5,264.0,000070,,,A
$GPGGA,115553.913,-3003.2208,N,-5126.5794,E,1,08,0.8,46.1,M,,,
$GPRMC,115553.913,A,-3003.2208,N,-5126.5794,E,40.5,263.0,000070,,,A
$GPGGA,115556.376,-3003.2232,N,-5126.5992,E,1,08,0.8,46.1,M,,,
$GPRMC,115556.376,A,-3003.2232,N,-5126.5992,E,42.7,263.0,000070,,,A
$GPGGA,115558.789,-3003.2250,N,-5126.6196,E,1,08,0.8,46.1,M,,,
$GPRMC,115558.789,A,-3003.2250,N,-5126.6196,E,44.3,264.0,000070,,,A
$GPGGA,115601.098,-3003.2268,N,-5126.6400,E,1,08,0.8,46.1,M,,,
$GPRMC,115601.098,A,-3003.2268,N,-5126.6400,E,44.3,263.0,000070,,,A
$GPGGA,115603.480,-3003.2292,N,-5126.6610,E,1,08,0.8,46.1,M,,,
$GPRMC,115603.480,A,-3003.2292,N,-5126.6610,E,44.3,263.0,000070,,,A
$GPGGA,115605.789,-3003.2310,N,-5126.6814,E,1,08,0.8,46.1,M,,,
$GPRMC,115605.789,A,-3003.2310,N,-5126.6814,E,44.3,264.0,000070,,,A
$GPGGA,115608.097,-3003.2328,N,-5126.7018,E,1,08,0.8,46.1,M,,,
$GPRMC,115608.097,A,-3003.2328,N,-5126.7018,E,44.3,264.0,000070,,,A
$GPGGA,115610.406,-3003.2346,N,-5126.7222,E,1,08,0.8,46.1,M,,,
$GPRMC,115610.406,A,-3003.2346,N,-5126.7222,E,44.3,263.0,000070,,,A
$GPGGA,115612.721,-3003.2370,N,-5126.7426,E,1,08,0.8,46.1,M,,,
$GPRMC,115612.721,A,-3003.2370,N,-5126.7426,E,44.3,263.0,000070,,,A
$GPGGA,115615.029,-3003.2388,N,-5126.7630,E,1,08,0.8,46.1,M,,,
$GPRMC,115615.029,A,-3003.2388,N,-5126.7630,E,44.3,264.0,000070,,,A
$GPGGA,115617.338,-3003.2406,N,-5126.7834,E,1,08,0.8,46.1,M,,,
$GPRMC,115617.338,A,-3003.2406,N,-5126.7834,E,44.3,263.0,000070,,,A
$GPGGA,115619.653,-3003.2430,N,-5126.8038,E,1,08,0.8,46.1,M,,,
$GPRMC,115619.653,A,-3003.2430,N,-5126.8038,E,44.3,263.0,000070,,,A
$GPGGA,115621.962,-3003.2448,N,-5126.8242,E,1,08,0.8,46.1,M,,,
$GPRMC,115621.962,A,-3003.2448,N,-5126.8242,E,44.3,264.0,000070,,,A
$GPGGA,115624.270,-3003.2466,N,-5126.8446,E,1,08,0.8,46.1,M,,,
$GPRMC,115624.270,A,-3003.2466,N,-5126.8446,E,44.3,263.0,000070,,,A
$GPGGA,115626.585,-3003.2490,N,-5126.8650,E,1,08,0.8,46.1,M,,,
$GPRMC,115626.585,A,-3003.2490,N,-5126.8650,E,44.3,263.0,000070,,,A
$GPGGA,115628.894,-3003.2508,N,-5126.8854,E,1,08,0.8,46.1,M,,,
$GPRMC,115628.894,A,-3003.2508,N,-5126.8854,E,44.3,264.0,000070,,,A
$GPGGA,115631.202,-3003.2526,N,-5126.9058,E,1,08,0.8,46.1,M,,,
$GPRMC,115631.202,A,-3003.2526,N,-5126.9058,E,44.3,263.0,000070,,,A
$GPGGA,115633.518,-3003.2550,N,-5126.9262,E,1,08,0.8,46.1,M,,,
$GPRMC,115633.518,A,-3003.2550,N,-5126.9262,E,44.3,263.0,000070,,,A
$GPGGA,115635.826,-3003.2568,N,-5126.9466,E,1,08,0.8,46.1,M,,,
$GPRMC,115635.826,A,-3003.2568,N,-5126.9466,E,44.3,264.0,000070,,,A
$GPGGA,115638.135,-3003.2586,N,-5126.9670,E,1,08,0.8,46.1,M,,,
$GPRMC,115638.135,A,-3003.2586,N,-5126.9670,E,44.3,265.0,000070,,,A
$GPGGA,115640.438,-3003.2598,N,-5126.9874,E,1,08,0.8,46.1,M,,,
$GPRMC,115640.438,A,-3003.2598,N,-5126.9874,E,44.3,265.0,000070,,,A
$GPGGA,115642.747,-3003.2616,N,-5127.0078,E,1,08,0.8,46.1,M,,,
$GPRMC,115642.747,A,-3003.2616,N,-5127.0078,E,44.3,265.0,000070,,,A
$GPGGA,115645.118,-3003.2628,N,-5127.0288,E,1,08,0.8,46.1,M,,,
$GPRMC,115645.118,A,-3003.2628,N,-5127.0288,E,44.3,265.0,000070,,,A
$GPGGA,115647.426,-3003.2646,N,-5127.0492,E,1,08,0.8,46.1,M,,,
$GPRMC,115647.426,A,-3003.2646,N,-5127.0492,E,44.3,265.0,000070,,,A
$GPGGA,115649.730,-3003.2658,N,-5127.0696,E,1,08,0.8,46.1,M,,,
$GPRMC,115649.730,A,-3003.2658,N,-5127.0696,E,44.3,265.0,000070,,,A
$GPGGA,115652.038,-3003.2676,N,-5127.0900,E,1,08,0.8,46.1,M,,,
$GPRMC,115652.038,A,-3003.2676,N,-5127.0900,E,44.3,265.0,000070,,,A
$GPGGA,115654.342,-3003.2688,N,-5127.1104,E,1,08,0.8,46.1,M,,,
$GPRMC,115654.342,A,-3003.2688,N,-5127.1104,E,44.3,265.0,000070,,,A
$GPGGA,115656.650,-3003.2706,N,-5127.1308,E,1,08,0.8,46.1,M,,,
$GPRMC,115656.650,A,-3003.2706,N,-5127.1308,E,44.3,265.0,000070,,,A
$GPGGA,115658.953,-3003.2718,N,-5127.1512,E,1,08,0.8,46.1,M,,,
$GPRMC,115658.953,A,-3003.2718,N,-5127.1512,E,44.3,265.0,000070,,,A
$GPGGA,115701.262,-3003.2736,N,-5127.1716,E,1,08,0.8,46.1,M,,,
$GPRMC,115701.262,A,-3003.2736,N,-5127.1716,E,44.3,265.0,000070,,,A
$GPGGA,115703.633,-3003.2748,N,-5127.1926,E,1,08,0.8,46.1,M,,,
$GPRMC,115703.633,A,-3003.2748,N,-5127.1926,E,44.3,265.0,000070,,,A
$GPGGA,115705.941,-3003.2766,N,-5127.2130,E,1,08,0.8,46.1,M,,,
$GPRMC,115705.941,A,-3003.2766,N,-5127.2130,E,44.3,265.0,000070,,,A
$GPGGA,115708.245,-3003.2778,N,-5127.2334,E,1,08,0.8,46.1,M,,,
$GPRMC,115708.245,A,-3003.2778,N,-5127.2334,E,44.3,266.0,000070,,,A
$GPGGA,115710.548,-3003.2790,N,-5127.2538,E,1,08,0.8,46.1,M,,,
$GPRMC,115710.548,A,-3003.2790,N,-5127.2538,E,44.3,265.0,000070,,,A
$GPGGA,115712.857,-3003.2808,N,-5127.2742,E,1,08,0.8,46.1,M,,,
$GPRMC,115712.857,A,-3003.2808,N,-5127.2742,E,44.3,265.0,000070,,,A
$GPGGA,115715.160,-3003.2820,N,-5127.2946,E,1,08,0.8,46.1,M,,,
$GPRMC,115715.160,A,-3003.2820,N,-5127.2946,E,44.3,265.0,000070,,,A
$GPGGA,115717.469,-3003.2838,N,-5127.3150,E,1,08,0.8,46.1,M,,,
$GPRMC,115717.469,A,-3003.2838,N,-5127.3150,E,44.3,265.0,000070,,,A
$GPGGA,115719.840,-3003.2850,N,-5127.3360,E,1,08,0.8,46.1,M,,,
$GPRMC,115719.840,A,-3003.2850,N,-5127.3360,E,44.3,265.0,000070,,,A
$GPGGA,115722.148,-3003.2868,N,-5127.3564,E,1,08,0.8,46.1,M,,,
$GPRMC,115722.148,A,-3003.2868,N,-5127.3564,E,44.3,265.0,000070,,,A
$GPGGA,115724.452,-3003.2880,N,-5127.3768,E,1,08,0.8,46.1,M,,,
$GPRMC,115724.452,A,-3003.2880,N,-5127.3768,E,44.3,265.0,000070,,,A
$GPGGA,115726.760,-3003.2898,N,-5127.3972,E,1,08,0.8,46.1,M,,,
$GPRMC,115726.760,A,-3003.2898,N,-5127.3972,E,44.3,265.0,000070,,,A
$GPGGA,115729.064,-3003.2910,N,-5127.4176,E,1,08,0.8,46.1,M,,,
$GPRMC,115729.064,A,-3003.2910,N,-5127.4176,E,44.3,265.0,000070,,,A
$GPGGA,115731.372,-3003.2928,N,-5127.4380,E,1,08,0.8,46.1,M,,,
$GPRMC,115731.372,A,-3003.2928,N,-5127.4380,E,44.3,265.0,000070,,,A
$GPGGA,115733.676,-3003.2940,N,-5127.4584,E,1,08,0.8,46.1,M,,,
$GPRMC,115733.676,A,-3003.2940,N,-5127.4584,E,44.3,266.0,000070,,,A
$GPGGA,115736.047,-3003.2952,N,-5127.4794,E,1,08,0.8,46.1,M,,,
$GPRMC,115736.047,A,-3003.2952,N,-5127.4794,E,44.3,265.0,000070,,,A
$GPGGA,115738.355,-3003.2970,N,-5127.4998,E,1,08,0.8,46.1,M,,,
$GPRMC,115738.355,A,-3003.2970,N,-5127.4998,E,44.3,265.0,000070,,,A
$GPGGA,115740.659,-3003.2982,N,-5127.5202,E,1,08,0.8,46.1,M,,,
$GPRMC,115740.659,A,-3003.2982,N,-5127.5202,E,44.3,266.0,000070,,,A
$GPGGA,115742.962,-3003.2994,N,-5127.5406,E,1,08,0.8,46.1,M,,,
$GPRMC,115742.962,A,-3003.2994,N,-5127.5406,E,44.3,266.0,000070,,,A
$GPGGA,115745.266,-3003.3006,N,-5127.5610,E,1,08,0.8,46.1,M,,,
$GPRMC,115745.266,A,-3003.3006,N,-5127.5610,E,44.3,266.0,000070,,,A
$GPGGA,115747.637,-3003.3018,N,-5127.5820,E,1,08,0.8,46.1,M,,,
$GPRMC,115747.637,A,-3003.3018,N,-5127.5820,E,44.3,266.0,000070,,,A
$GPGGA,115749.940,-3003.3030,N,-5127.6024,E,1,08,0.8,46.1,M,,,
$GPRMC,115749.940,A,-3003.3030,N,-5127.6024,E,44.3,266.0,000070,,,A
$GPGGA,115752.244,-3003.3042,N,-5127.6228,E,1,08,0.8,46.1,M,,,
$GPRMC,115752.244,A,-3003.3042,N,-5127.6228,E,44.3,266.0,000070,,,A
$GPGGA,115754.547,-3003.3054,N,-5127.6432,E,1,08,0.8,46.1,M,,,
$GPRMC,115754.547,A,-3003.3054,N,-5127.6432,E,44.3,266.0,000070,,,A
$GPGGA,115756.850,-3003.3066,N,-5127.6636,E,1,08,0.8,46.1,M,,,
$GPRMC,115756.850,A,-3003.3066,N,-5127.6636,E,44.3,265.0,000070,,,A
$GPGGA,115759.226,-3003.3084,N,-5127.6846,E,1,08,0.8,46.1,M,,,
$GPRMC,115759.226,A,-3003.3084,N,-5127.6846,E,44.3,265.0,000070,,,A
$GPGGA,115801.530,-3003.3096,N,-5127.7050,E,1,08,0.8,46.1,M,,,
$GPRMC,115801.530,A,-3003.3096,N,-5127.7050,E,44.3,266.0,000070,,,A
$GPGGA,115803.833,-3003.3108,N,-5127.7254,E,1,08,0.8,46.1,M,,,
$GPRMC,115803.833,A,-3003.3108,N,-5127.7254,E,44.3,266.0,000070,,,A
$GPGGA,115806.137,-3003.3120,N,-5127.7458,E,1,08,0.8,46.1,M,,,
$GPRMC,115806.137,A,-3003.3120,N,-5127.7458,E,44.3,266.0,000070,,,A
$GPGGA,115808.440,-3003.3132,N,-5127.7662,E,1,08,0.8,46.1,M,,,
$GPRMC,115808.440,A,-3003.3132,N,-5127.7662,E,44.3,266.0,000070,,,A
$GPGGA,115810.811,-3003.3144,N,-5127.7872,E,1,08,0.8,46.1,M,,,
$GPRMC,115810.811,A,-3003.3144,N,-5127.7872,E,44.3,266.0,000070,,,A
$GPGGA,115813.115,-3003.3156,N,-5127.8076,E,1,08,0.8,46.1,M,,,
$GPRMC,115813.115,A,-3003.3156,N,-5127.8076,E,44.3,266.0,000070,,,A
$GPGGA,115815.418,-3003.3168,N,-5127.8280,E,1,08,0.8,46.1,M,,,
$GPRMC,115815.418,A,-3003.3168,N,-5127.8280,E,44.3,266.0,000070,,,A
$GPGGA,115817.722,-3003.3180,N,-5127.8484,E,1,08,0.8,46.1,M,,,
$GPRMC,115817.722,A,-3003.3180,N,-5127.8484,E,44.3,265.0,000070,,,A
$GPGGA,115820.098,-3003.3198,N,-5127.8694,E,1,08,0.8,46.1,M,,,
$GPRMC,115820.098,A,-3003.3198,N,-5127.8694,E,44.3,265.0,000070,,,A
$GPGGA,115822.401,-3003.3210,N,-5127.8898,E,1,08,0.8,46.1,M,,,
$GPRMC,115822.401,A,-3003.3210,N,-5127.8898,E,44.3,266.0,000070,,,A
$GPGGA,115824.705,-3003.3222,N,-5127.9102,E,1,08,0.8,46.1,M,,,
$GPRMC,115824.705,A,-3003.3222,N,-5127.9102,E,44.3,266.0,000070,,,A
$GPGGA,115827.008,-3003.3234,N,-5127.9306,E,1,08,0.8,46.1,M,,,
$GPRMC,115827.008,A,-3003.3234,N,-5127.9306,E,44.3,266.0,000070,,,A
$GPGGA,115829.312,-3003.3246,N,-5127.9510,E,1,08,0.8,46.1,M,,,
$GPRMC,115829.312,A,-3003.3246,N,-5127.9510,E,44.3,266.0,000070,,,A
$GPGGA,115831.683,-3003.3258,N,-5127.9720,E,1,08,0.8,46.1,M,,,
$GPRMC,115831.683,A,-3003.3258,N,-5127.9720,E,44.3,265.0,000070,,,A
$GPGGA,115833.991,-3003.3276,N,-5127.9924,E,1,08,0.8,46.1,M,,,
$GPRMC,115833.991,A,-3003.3276,N,-5127.9924,E,44.3,265.0,000070,,,A
$GPGGA,115836.295,-3003.3288,N,-5128.0128,E,1,08,0.8,46.1,M,,,
$GPRMC,115836.295,A,-3003.3288,N,-5128.0128,E,44.3,266.0,000070,,,A
$GPGGA,115838.598,-3003.3300,N,-5128.0332,E,1,08,0.8,46.1,M,,,
$GPRMC,115838.598,A,-3003.3300,N,-5128.0332,E,44.3,265.0,000070,,,A
$GPGGA,115840.906,-3003.3318,N,-5128.0536,E,1,08,0.8,46.1,M,,,
$GPRMC,115840.906,A,-3003.3318,N,-5128.0536,E,44.3,265.0,000070,,,A
$GPGGA,115843.210,-3003.3330,N,-5128.0740,E,1,08,0.8,46.1,M,,,
$GPRMC,115843.210,A,-3003.3330,N,-5128.0740,E,44.3,266.0,000070,,,A
$GPGGA,115845.581,-3003.3342,N,-5128.0950,E,1,08,0.8,46.1,M,,,
$GPRMC,115845.581,A,-3003.3342,N,-5128.0950,E,44.3,266.0,000070,,,A
$GPGGA,115847.884,-3003.3354,N,-5128.1154,E,1,08,0.8,46.1,M,,,
$GPRMC,115847.884,A,-3003.3354,N,-5128.1154,E,44.3,265.0,000070,,,A
$GPGGA,115850.193,-3003.3372,N,-5128.1358,E,1,08,0.8,46.1,M,,,
$GPRMC,115850.193,A,-3003.3372,N,-5128.1358,E,44.3,265.0,000070,,,A
$GPGGA,115852.496,-3003.3384,N,-5128.1562,E,1,08,0.8,46.1,M,,,
$GPRMC,115852.496,A,-3003.3384,N,-5128.1562,E,44.3,266.0,000070,,,A
$GPGGA,115854.800,-3003.3396,N,-5128.1766,E,1,08,0.8,46.1,M,,,
$GPRMC,115854.800,A,-3003.3396,N,-5128.1766,E,44.3,265.0,000070,,,A
$GPGGA,115857.176,-3003.3414,N,-5128.1976,E,1,08,0.8,46.1,M,,,
$GPRMC,115857.176,A,-3003.3414,N,-5128.1976,E,44.3,265.0,000070,,,A
$GPGGA,115859.479,-3003.3426,N,-5128.2180,E,1,08,0.8,46.1,M,,,
$GPRMC,115859.479,A,-3003.3426,N,-5128.2180,E,44.3,266.0,000070,,,A
$GPGGA,115901.783,-3003.3438,N,-5128.2384,E,1,08,0.8,46.1,M,,,
$GPRMC,115901.783,A,-3003.3438,N,-5128.2384,E,44.3,265.0,000070,,,A
$GPGGA,115904.091,-3003.3456,N,-5128.2588,E,1,08,0.8,46.1,M,,,
$GPRMC,115904.091,A,-3003.3456,N,-5128.2588,E,44.3,265.0,000070,,,A
$GPGGA,115906.395,-3003.3468,N,-5128.2792,E,1,08,0.8,46.1,M,,,
$GPRMC,115906.395,A,-3003.3468,N,-5128.2792,E,44.3,266.0,000070,,,A
$GPGGA,115908.766,-3003.3480,N,-5128.3002,E,1,08,0.8,46.1,M,,,
$GPRMC,115908.766,A,-3003.3480,N,-5128.3002,E,44.3,266.0,000070,,,A
$GPGGA,115911.069,-3003.3492,N,-5128.3206,E,1,08,0.8,46.1,M,,,
$GPRMC,115911.069,A,-3003.3492,N,-5128.3206,E,44.3,265.0,000070,,,A
$GPGGA,115913.378,-3003.3510,N,-5128.3410,E,1,08,0.8,46.1,M,,,
$GPRMC,115913.378,A,-3003.3510,N,-5128.3410,E,44.3,265.0,000070,,,A
$GPGGA,115915.681,-3003.3522,N,-5128.3614,E,1,08,0.8,46.1,M,,,
$GPRMC,115915.681,A,-3003.3522,N,-5128.3614,E,44.3,266.0,000070,,,A
$GPGGA,115917.985,-3003.3534,N,-5128.3818,E,1,08,0.8,46.1,M,,,
$GPRMC,115917.985,A,-3003.3534,N,-5128.3818,E,44.3,265.0,000070,,,A
$GPGGA,115920.360,-3003.3552,N,-5128.4028,E,1,08,0.8,46.1,M,,,
$GPRMC,115920.360,A,-3003.3552,N,-5128.4028,E,44.3,265.0,000070,,,A
$GPGGA,115922.664,-3003.3564,N,-5128.4232,E,1,08,0.8,46.1,M,,,
$GPRMC,115922.664,A,-3003.3564,N,-5128.4232,E,44.3,266.0,000070,,,A
$GPGGA,115924.967,-3003.3576,N,-5128.4436,E,1,08,0.8,46.1,M,,,
$GPRMC,115924.967,A,-3003.3576,N,-5128.4436,E,44.3,266.0,000070,,,A
$GPGGA,115927.271,-3003.3588,N,-5128.4640,E,1,08,0.8,46.1,M,,,
$GPRMC,115927.271,A,-3003.3588,N,-5128.4640,E,44.3,265.0,000070,,,A
$GPGGA,115929.579,-3003.3606,N,-5128.4844,E,1,08,0.8,46.1,M,,,
$GPRMC,115929.579,A,-3003.3606,N,-5128.4844,E,44.3,265.0,000070,,,A
$GPGGA,115931.883,-3003.3618,N,-5128.5048,E,1,08,0.8,46.1,M,,,
$GPRMC,115931.883,A,-3003.3618,N,-5128.5048,E,44.3,266.0,000070,,,A
$GPGGA,115934.254,-3003.3630,N,-5128.5258,E,1,08,0.8,46.1,M,,,
$GPRMC,115934.254,A,-3003.3630,N,-5128.5258,E,44.3,265.0,000070,,,A
$GPGGA,115936.562,-3003.3648,N,-5128.5462,E,1,08,0.8,46.1,M,,,
$GPRMC,115936.562,A,-3003.3648,N,-5128.5462,E,44.3,265.0,000070,,,A
$GPGGA,115938.866,-3003.3660,N,-5128.5666,E,1,08,0.8,46.1,M,,,
$GPRMC,115938.866,A,-3003.3660,N,-5128.5666,E,44.3,266.0,000070,,,A
$GPGGA,115941.169,-3003.3672,N,-5128.5870,E,1,08,0.8,46.1,M,,,
$GPRMC,115941.169,A,-3003.3672,N,-5128.5870,E,44.3,265.0,000070,,,A
$GPGGA,115943.478,-3003.3690,N,-5128.6074,E,1,08,0.8,46.1,M,,,
$GPRMC,115943.478,A,-3003.3690,N,-5128.6074,E,44.3,265.0,000070,,,A
$GPGGA,115945.849,-3003.3702,N,-5128.6284,E,1,08,0.8,46.1,M,,,
$GPRMC,115945.849,A,-3003.3702,N,-5128.6284,E,44.3,266.0,000070,,,A
$GPGGA,115948.152,-3003.3714,N,-5128.6488,E,1,08,0.8,46.1,M,,,
$GPRMC,115948.152,A,-3003.3714,N,-5128.6488,E,44.3,266.0,000070,,,A
$GPGGA,115950.456,-3003.3726,N,-5128.6692,E,1,08,0.8,46.1,M,,,
$GPRMC,115950.456,A,-3003.3726,N,-5128.6692,E,44.3,265.0,000070,,,A
$GPGGA,115952.764,-3003.3744,N,-5128.6896,E,1,08,0.8,46.1,M,,,
$GPRMC,115952.764,A,-3003.3744,N,-5128.6896,E,44.3,265.0,000070,,,A
$GPGGA,115955.068,-3003.3756,N,-5128.7100,E,1,08,0.8,46.1,M,,,
$GPRMC,115955.068,A,-3003.3756,N,-5128.7100,E,44.3,266.0,000070,,,A
$GPGGA,115957.439,-3003.3768,N,-5128.7310,E,1,08,0.8,46.1,M,,,
$GPRMC,115957.439,A,-3003.3768,N,-5128.7310,E,44.3,265.0,000070,,,A
$GPGGA,115959.747,-3003.3786,N,-5128.7514,E,1,08,0.8,46.1,M,,,
$GPRMC,115959.747,A,-3003.3786,N,-5128.7514,E,44.3,265.0,000070,,,A
$GPGGA,120002.051,-3003.3798,N,-5128.7718,E,1,08,0.8,46.1,M,,,
$GPRMC,120002.051,A,-3003.3798,N,-5128.7718,E,44.3,266.0,000070,,,A
$GPGGA,120004.354,-3003.3810,N,-5128.7922,E,1,08,0.8,46.1,M,,,
$GPRMC,120004.354,A,-3003.3810,N,-5128.7922,E,44.3,265.0,000070,,,A
$GPGGA,120006.663,-3003.3828,N,-5128.8126,E,1,08,0.8,46.1,M,,,
$GPRMC,120006.663,A,-3003.3828,N,-5128.8126,E,44.3,265.0,000070,,,A
$GPGGA,120009.034,-3003.3840,N,-5128.8336,E,1,08,0.8,46.1,M,,,
$GPRMC,120009.034,A,-3003.3840,N,-5128.8336,E,44.3,266.0,000070,,,A
$GPGGA,120011.337,-3003.3852,N,-5128.8540,E,1,08,0.8,46.1,M,,,
$GPRMC,120011.337,A,-3003.3852,N,-5128.8540,E,44.3,265.0,000070,,,A
$GPGGA,120013.646,-3003.3870,N,-5128.8744,E,1,08,0.8,46.1,M,,,
$GPRMC,120013.646,A,-3003.3870,N,-5128.8744,E,44.3,265.0,000070,,,A
$GPGGA,120015.949,-3003.3882,N,-5128.8948,E,1,08,0.8,46.1,M,,,
$GPRMC,120015.949,A,-3003.3882,N,-5128.8948,E,44.3,266.0,000070,,,A
$GPGGA,120018.320,-3003.3894,N,-5128.9158,E,1,08,0.8,46.1,M,,,
$GPRMC,120018.320,A,-3003.3894,N,-5128.9158,E,44.3,265.0,000070,,,A
$GPGGA,120020.628,-3003.3912,N,-5128.9362,E,1,08,0.8,46.1,M,,,
$GPRMC,120020.628,A,-3003.3912,N,-5128.9362,E,44.3,265.0,000070,,,A
$GPGGA,120022.932,-3003.3924,N,-5128.9566,E,1,08,0.8,46.1,M,,,
$GPRMC,120022.932,A,-3003.3924,N,-5128.9566,E,44.3,266.0,000070,,,A
$GPGGA,120025.235,-3003.3936,N,-5128.9770,E,1,08,0.8,46.1,M,,,
$GPRMC,120025.235,A,-3003.3936,N,-5128.9770,E,44.3,265.0,000070,,,A
$GPGGA,120027.544,-3003.3954,N,-5128.9974,E,1,08,0.8,46.1,M,,,
$GPRMC,120027.544,A,-3003.3954,N,-5128.9974,E,44.3,265.0,000070,,,A
$GPGGA,120029.915,-3003.3966,N,-5129.0184,E,1,08,0.8,46.1,M,,,
$GPRMC,120029.915,A,-3003.3966,N,-5129.0184,E,44.3,266.0,000070,,,A
$GPGGA,120032.218,-3003.3978,N,-5129.0388,E,1,08,0.8,46.1,M,,,
$GPRMC,120032.218,A,-3003.3978,N,-5129.0388,E,44.3,265.0,000070,,,A
$GPGGA,120034.527,-3003.3996,N,-5129.0592,E,1,08,0.8,46.1,M,,,
$GPRMC,120034.527,A,-3003.3996,N,-5129.0592,E,44.3,265.0,000070,,,A
$GPGGA,120036.830,-3003.4008,N,-5129.0796,E,1,08,0.8,46.1,M,,,
$GPRMC,120036.830,A,-3003.4008,N,-5129.0796,E,44.3,265.0,000070,,,A
$GPGGA,120039.206,-3003.4026,N,-5129.1006,E,1,08,0.8,46.1,M,,,
$GPRMC,120039.206,A,-3003.4026,N,-5129.1006,E,44.3,265.0,000070,,,A
$GPGGA,120041.510,-3003.4038,N,-5129.1210,E,1,08,0.8,46.1,M,,,
$GPRMC,120041.510,A,-3003.4038,N,-5129.1210,E,44.3,266.0,000070,,,A
$GPGGA,120043.813,-3003.4050,N,-5129.1414,E,1,08,0.8,46.1,M,,,
$GPRMC,120043.813,A,-3003.4050,N,-5129.1414,E,44.3,265.0,000070,,,A
$GPGGA,120046.122,-3003.4068,N,-5129.1618,E,1,08,0.8,46.1,M,,,
$GPRMC,120046.122,A,-3003.4068,N,-5129.1618,E,44.3,265.0,000070,,,A
$GPGGA,120048.425,-3003.4080,N,-5129.1822,E,1,08,0.8,46.1,M,,,
$GPRMC,120048.425,A,-3003.4080,N,-5129.1822,E,44.3,266.0,000070,,,A
$GPGGA,120050.796,-3003.4092,N,-5129.2032,E,1,08,0.8,46.1,M,,,
$GPRMC,120050.796,A,-3003.4092,N,-5129.2032,E,44.3,265.0,000070,,,A
$GPGGA,120053.105,-3003.4110,N,-5129.2236,E,1,08,0.8,46.1,M,,,
$GPRMC,120053.105,A,-3003.4110,N,-5129.2236,E,44.3,265.0,000070,,,A
$GPGGA,120055.408,-3003.4122,N,-5129.2440,E,1,08,0.8,46.1,M,,,
$GPRMC,120055.408,A,-3003.4122,N,-5129.2440,E,44.3,266.0,000070,,,A
$GPGGA,120057.712,-3003.4134,N,-5129.2644,E,1,08,0.8,46.1,M,,,
$GPRMC,120057.712,A,-3003.4134,N,-5129.2644,E,44.3,265.0,000070,,,A
$GPGGA,120100.020,-3003.4152,N,-5129.2848,E,1,08,0.8,46.1,M,,,
$GPRMC,120100.020,A,-3003.4152,N,-5129.2848,E,44.3,265.0,000070,,,A
$GPGGA,120102.391,-3003.4164,N,-5129.3058,E,1,08,0.8,46.1,M,,,
$GPRMC,120102.391,A,-3003.4164,N,-5129.3058,E,44.3,266.0,000070,,,A
$GPGGA,120104.695,-3003.4176,N,-5129.3262,E,1,08,0.8,46.1,M,,,
$GPRMC,120104.695,A,-3003.4176,N,-5129.3262,E,44.3,265.0,000070,,,A
$GPGGA,120107.003,-3003.4194,N,-5129.3466,E,1,08,0.8,46.1,M,,,
$GPRMC,120107.003,A,-3003.4194,N,-5129.3466,E,44.3,265.0,000070,,,A
$GPGGA,120109.306,-3003.4206,N,-5129.3670,E,1,08,0.8,46.1,M,,,
$GPRMC,120109.306,A,-3003.4206,N,-5129.3670,E,44.3,265.0,000070,,,A
$GPGGA,120111.615,-3003.4224,N,-5129.3874,E,1,08,0.8,46.1,M,,,
$GPRMC,120111.615,A,-3003.4224,N,-5129.3874,E,44.3,265.0,000070,,,A
$GPGGA,120113.986,-3003.4236,N,-5129.4084,E,1,08,0.8,46.1,M,,,
$GPRMC,120113.986,A,-3003.4236,N,-5129.4084,E,44.3,265.0,000070,,,A
$GPGGA,120116.294,-3003.4254,N,-5129.4288,E,1,08,0.8,46.1,M,,,
$GPRMC,120116.294,A,-3003.4254,N,-5129.4288,E,44.3,264.0,000070,,,A
$GPGGA,120118.603,-3003.4272,N,-5129.4492,E,1,08,0.8,46.1,M,,,
$GPRMC,120118.603,A,-3003.4272,N,-5129.4492,E,44.3,265.0,000070,,,A
$GPGGA,120120.906,-3003.4284,N,-5129.4696,E,1,08,0.8,46.1,M,,,
$GPRMC,120120.906,A,-3003.4284,N,-5129.4696,E,44.3,265.0,000070,,,A
$GPGGA,120123.215,-3003.4302,N,-5129.4900,E,1,08,0.8,46.1,M,,,
$GPRMC,120123.215,A,-3003.4302,N,-5129.4900,E,44.3,265.0,000070,,,A
$GPGGA,120125.586,-3003.4314,N,-5129.5110,E,1,08,0.8,46.1,M,,,
$GPRMC,120125.586,A,-3003.4314,N,-5129.5110,E,44.3,265.0,000070,,,A
$GPGGA,120127.894,-3003.4332,N,-5129.5314,E,1,08,0.8,46.1,M,,,
$GPRMC,120127.894,A,-3003.4332,N,-5129.5314,E,44.3,265.0,000070,,,A
$GPGGA,120130.198,-3003.4344,N,-5129.5518,E,1,08,0.8,46.1,M,,,
$GPRMC,120130.198,A,-3003.4344,N,-5129.5518,E,44.3,265.0,000070,,,A
$GPGGA,120132.506,-3003.4362,N,-5129.5722,E,1,08,0.8,46.1,M,,,
$GPRMC,120132.506,A,-3003.4362,N,-5129.5722,E,44.3,265.0,000070,,,A
$GPGGA,120134.810,-3003.4374,N,-5129.5926,E,1,08,0.8,46.1,M,,,
$GPRMC,120134.810,A,-3003.4374,N,-5129.5926,E,44.3,265.0,000070,,,A
$GPGGA,120137.118,-3003.4392,N,-5129.6130,E,1,08,0.8,46.1,M,,,
$GPRMC,120137.118,A,-3003.4392,N,-5129.6130,E,44.3,264.0,000070,,,A
$GPGGA,120139.494,-3003.4410,N,-5129.6340,E,1,08,0.8,46.1,M,,,
$GPRMC,120139.494,A,-3003.4410,N,-5129.6340,E,44.3,265.0,000070,,,A
$GPGGA,120141.797,-3003.4422,N,-5129.6544,E,1,08,0.8,46.1,M,,,
$GPRMC,120141.797,A,-3003.4422,N,-5129.6544,E,44.3,265.0,000070,,,A
$GPGGA,120144.106,-3003.4440,N,-5129.6748,E,1,08,0.8,46.1,M,,,
$GPRMC,120144.106,A,-3003.4440,N,-5129.6748,E,44.3,265.0,000070,,,A
$GPGGA,120146.409,-3003.4452,N,-5129.6952,E,1,08,0.8,46.1,M,,,
$GPRMC,120146.409,A,-3003.4452,N,-5129.6952,E,44.3,265.0,000070,,,A
$GPGGA,120148.718,-3003.4470,N,-5129.7156,E,1,08,0.8,46.1,M,,,
$GPRMC,120148.718,A,-3003.4470,N,-5129.7156,E,44.3,265.0,000070,,,A
$GPGGA,120151.089,-3003.4482,N,-5129.7366,E,1,08,0.8,46.1,M,,,
$GPRMC,120151.089,A,-3003.4482,N,-5129.7366,E,44.3,265.0,000070,,,A
$GPGGA,120153.397,-3003.4500,N,-5129.7570,E,1,08,0.8,46.1,M,,,
$GPRMC,120153.397,A,-3003.4500,N,-5129.7570,E,44.3,265.0,000070,,,A
$GPGGA,120155.701,-3003.4512,N,-5129.7774,E,1,08,0.8,46.1,M,,,
$GPRMC,120155.701,A,-3003.4512,N,-5129.7774,E,44.3,265.0,000070,,,A
$GPGGA,120158.009,-3003.4530,N,-5129.7978,E,1,08,0.8,46.1,M,,,
$GPRMC,120158.009,A,-3003.4530,N,-5129.7978,E,44.3,265.0,000070,,,A
$GPGGA,120200.313,-3003.4542,N,-5129.8182,E,1,08,0.8,46.1,M,,,
$GPRMC,120200.313,A,-3003.4542,N,-5129.8182,E,44.3,266.0,000070,,,A
$GPGGA,120202.616,-3003.4554,N,-5129.8386,E,1,08,0.8,46.1,M,,,
$GPRMC,120202.616,A,-3003.4554,N,-5129.8386,E,44.3,266.0,000070,,,A
$GPGGA,120204.987,-3003.4566,N,-5129.8596,E,1,08,0.8,46.1,M,,,
$GPRMC,120204.987,A,-3003.4566,N,-5129.8596,E,44.3,265.0,000070,,,A
$GPGGA,120207.296,-3003.4584,N,-5129.8800,E,1,08,0.8,46.1,M,,,
$GPRMC,120207.296,A,-3003.4584,N,-5129.8800,E,44.3,265.0,000070,,,A
$GPGGA,120209.599,-3003.4596,N,-5129.9004,E,1,08,0.8,46.1,M,,,
$GPRMC,120209.599,A,-3003.4596,N,-5129.9004,E,44.3,266.0,000070,,,A
$GPGGA,120211.903,-3003.4608,N,-5129.9208,E,1,08,0.8,46.1,M,,,
$GPRMC,120211.903,A,-3003.4608,N,-5129.9208,E,44.3,266.0,000070,,,A
$GPGGA,120214.206,-3003.4620,N,-5129.9412,E,1,08,0.8,46.1,M,,,
$GPRMC,120214.206,A,-3003.4620,N,-5129.9412,E,44.3,265.0,000070,,,A
$GPGGA,120216.515,-3003.4638,N,-5129.9616,E,1,08,0.8,46.1,M,,,
$GPRMC,120216.515,A,-3003.4638,N,-5129.9616,E,44.3,265.0,000070,,,A
$GPGGA,120218.886,-3003.4650,N,-5129.9826,E,1,08,0.8,46.1,M,,,
$GPRMC,120218.886,A,-3003.4650,N,-5129.9826,E,44.3,266.0,000070,,,A
$GPGGA,120221.189,-3003.4662,N,-5130.0030,E,1,08,0.8,46.1,M,,,
$GPRMC,120221.189,A,-3003.4662,N,-5130.0030,E,44.3,266.0,000070,,,A
$GPGGA,120223.493,-3003.4674,N,-5130.0234,E,1,08,0.8,46.1,M,,,
$GPRMC,120223.493,A,-3003.4674,N,-5130.0234,E,44.3,265.0,000070,,,A
$GPGGA,120225.801,-3003.4692,N,-5130.0438,E,1,08,0.8,46.1,M,,,
$GPRMC,120225.801,A,-3003.4692,N,-5130.0438,E,44.3,265.0,000070,,,A
$GPGGA,120228.105,-3003.4704,N,-5130.0642,E,1,08,0.8,46.1,M,,,
$GPRMC,120228.105,A,-3003.4704,N,-5130.0642,E,44.3,266.0,000070,,,A
$GPGGA,120230.408,-3003.4716,N,-5130.0846,E,1,08,0.8,46.1,M,,,
$GPRMC,120230.408,A,-3003.4716,N,-5130.0846,E,44.3,265.0,000070,,,A
$GPGGA,120232.784,-3003.4734,N,-5130.1056,E,1,08,0.8,46.1,M,,,
$GPRMC,120232.784,A,-3003.4734,N,-5130.1056,E,44.3,266.0,000070,,,A
$GPGGA,120235.084,-3003.4740,N,-5130.1260,E,1,08,0.8,46.1,M,,,
$GPRMC,120235.084,A,-3003.4740,N,-5130.1260,E,44.3,267.0,000070,,,A
$GPGGA,120237.388,-3003.4752,N,-5130.1464,E,1,08,0.8,46.1,M,,,
$GPRMC,120237.388,A,-3003.4752,N,-5130.1464,E,44.3,266.0,000070,,,A
$GPGGA,120239.691,-3003.4764,N,-5130.1668,E,1,08,0.8,46.1,M,,,
$GPRMC,120239.691,A,-3003.4764,N,-5130.1668,E,44.3,266.0,000070,,,A
$GPGGA,120241.995,-3003.4776,N,-5130.1872,E,1,08,0.8,46.1,M,,,
$GPRMC,120241.995,A,-3003.4776,N,-5130.1872,E,44.3,266.0,000070,,,A
$GPGGA,120244.298,-3003.4788,N,-5130.2076,E,1,08,0.8,46.1,M,,,
$GPRMC,120244.298,A,-3003.4788,N,-5130.2076,E,44.3,266.0,000070,,,A
$GPGGA,120246.602,-3003.4800,N,-5130.2280,E,1,08,0.8,46.1,M,,,
$GPRMC,120246.602,A,-3003.4800,N,-5130.2280,E,44.3,266.0,000070,,,A
$GPGGA,120248.973,-3003.4812,N,-5130.2490,E,1,08,0.8,46.1,M,,,
$GPRMC,120248.973,A,-3003.4812,N,-5130.2490,E,44.3,266.0,000070,,,A
$GPGGA,120251.276,-3003.4824,N,-5130.2694,E,1,08,0.8,46.1,M,,,
$GPRMC,120251.276,A,-3003.4824,N,-5130.2694,E,44.3,266.0,000070,,,A
$GPGGA,120253.580,-3003.4836,N,-5130.2898,E,1,08,0.8,46.1,M,,,
$GPRMC,120253.580,A,-3003.4836,N,-5130.2898,E,44.3,266.0,000070,,,A
$GPGGA,120255.883,-3003.4848,N,-5130.3102,E,1,08,0.8,46.1,M,,,
$GPRMC,120255.883,A,-3003.4848,N,-5130.3102,E,44.3,266.0,000070,,,A
$GPGGA,120258.187,-3003.4860,N,-5130.3306,E,1,08,0.8,46.1,M,,,
$GPRMC,120258.187,A,-3003.4860,N,-5130.3306,E,44.3,266.0,000070,,,A
$GPGGA,120300.490,-3003.4872,N,-5130.3510,E,1,08,0.8,46.1,M,,,
$GPRMC,120300.490,A,-3003.4872,N,-5130.3510,E,44.3,266.0,000070,,,A
$GPGGA,120302.861,-3003.4884,N,-5130.3720,E,1,08,0.8,46.1,M,,,
$GPRMC,120302.861,A,-3003.4884,N,-5130.3720,E,44.3,267.0,000070,,,A
$GPGGA,120305.162,-3003.4890,N,-5130.3924,E,1,08,0.8,46.1,M,,,
$GPRMC,120305.162,A,-3003.4890,N,-5130.3924,E,44.3,267.0,000070,,,A
$GPGGA,120307.465,-3003.4902,N,-5130.4128,E,1,08,0.8,46.1,M,,,
$GPRMC,120307.465,A,-3003.4902,N,-5130.4128,E,44.3,267.0,000070,,,A
$GPGGA,120309.766,-3003.4908,N,-5130.4332,E,1,08,0.8,46.1,M,,,
$GPRMC,120309.766,A,-3003.4908,N,-5130.4332,E,44.3,267.0,000070,,,A
$GPGGA,120312.137,-3003.4920,N,-5130.4542,E,1,08,0.8,46.1,M,,,
$GPRMC,120312.137,A,-3003.4920,N,-5130.4542,E,44.3,267.0,000070,,,A
$GPGGA,120314.437,-3003.4926,N,-5130.4746,E,1,08,0.8,46.1,M,,,
$GPRMC,120314.437,A,-3003.4926,N,-5130.4746,E,44.3,267.0,000070,,,A
$GPGGA,120316.741,-3003.4938,N,-5130.4950,E,1,08,0.8,46.1,M,,,
$GPRMC,120316.741,A,-3003.4938,N,-5130.4950,E,44.3,266.0,000070,,,A
$GPGGA,120319.044,-3003.4950,N,-5130.5154,E,1,08,0.8,46.1,M,,,
$GPRMC,120319.044,A,-3003.4950,N,-5130.5154,E,44.3,266.0,000070,,,A
$GPGGA,120321.348,-3003.4962,N,-5130.5358,E,1,08,0.8,46.1,M,,,
$GPRMC,120321.348,A,-3003.4962,N,-5130.5358,E,44.3,265.0,000070,,,A
$GPGGA,120323.656,-3003.4980,N,-5130.5562,E,1,08,0.8,46.1,M,,,
$GPRMC,120323.656,A,-3003.4980,N,-5130.5562,E,44.3,264.0,000070,,,A
$GPGGA,120325.965,-3003.4998,N,-5130.5766,E,1,08,0.8,46.1,M,,,
$GPRMC,120325.965,A,-3003.4998,N,-5130.5766,E,44.3,265.0,000070,,,A
$GPGGA,120328.268,-3003.5010,N,-5130.5970,E,1,08,0.8,46.1,M,,,
$GPRMC,120328.268,A,-3003.5010,N,-5130.5970,E,44.3,265.0,000070,,,A
$GPGGA,120330.644,-3003.5028,N,-5130.6180,E,1,08,0.8,46.1,M,,,
$GPRMC,120330.644,A,-3003.5028,N,-5130.6180,E,44.3,265.0,000070,,,A
$GPGGA,120332.948,-3003.5040,N,-5130.6384,E,1,08,0.8,46.1,M,,,
$GPRMC,120332.948,A,-3003.5040,N,-5130.6384,E,44.3,265.0,000070,,,A
$GPGGA,120335.256,-3003.5058,N,-5130.6588,E,1,08,0.8,46.1,M,,,
$GPRMC,120335.256,A,-3003.5058,N,-5130.6588,E,44.3,264.0,000070,,,A
$GPGGA,120337.564,-3003.5076,N,-5130.6792,E,1,08,0.8,46.1,M,,,
$GPRMC,120337.564,A,-3003.5076,N,-5130.6792,E,44.3,265.0,000070,,,A
$GPGGA,120339.868,-3003.5088,N,-5130.6996,E,1,08,0.8,46.1,M,,,
$GPRMC,120339.868,A,-3003.5088,N,-5130.6996,E,44.3,263.0,000070,,,A
$GPGGA,120342.192,-3003.5118,N,-5130.7200,E,1,08,0.8,46.1,M,,,
$GPRMC,120342.192,A,-3003.5118,N,-5130.7200,E,44.3,259.0,000070,,,A
$GPGGA,120344.461,-3003.5154,N,-5130.7398,E,1,08,0.8,46.1,M,,,
$GPRMC,120344.461,A,-3003.5154,N,-5130.7398,E,44.3,257.0,000070,,,A
$GPGGA,120346.808,-3003.5196,N,-5130.7602,E,1,08,0.8,46.1,M,,,
$GPRMC,120346.808,A,-3003.5196,N,-5130.7602,E,44.3,256.0,000070,,,A
$GPGGA,120349.090,-3003.5238,N,-5130.7800,E,1,08,0.8,46.1,M,,,
$GPRMC,120349.090,A,-3003.5238,N,-5130.7800,E,44.3,257.0,000070,,,A
$GPGGA,120351.358,-3003.5274,N,-5130.7998,E,1,08,0.8,46.1,M,,,
$GPRMC,120351.358,A,-3003.5274,N,-5130.7998,E,44.3,257.0,000070,,,A
$GPGGA,120353.706,-3003.5316,N,-5130.8202,E,1,08,0.8,46.1,M,,,
$GPRMC,120353.706,A,-3003.5316,N,-5130.8202,E,44.3,256.0,000070,,,A
$GPGGA,120355.988,-3003.5358,N,-5130.8400,E,1,08,0.8,46.1,M,,,
$GPRMC,120355.988,A,-3003.5358,N,-5130.8400,E,44.3,256.0,000070,,,A
$GPGGA,120358.335,-3003.5400,N,-5130.8604,E,1,08,0.8,46.1,M,,,
$GPRMC,120358.335,A,-3003.5400,N,-5130.8604,E,44.3,257.0,000070,,,A
$GPGGA,120400.604,-3003.5436,N,-5130.8802,E,1,08,0.8,46.1,M,,,
$GPRMC,120400.604,A,-3003.5436,N,-5130.8802,E,44.3,257.0,000070,,,A
$GPGGA,120402.885,-3003.5478,N,-5130.9000,E,1,08,0.8,46.1,M,,,
$GPRMC,120402.885,A,-3003.5478,N,-5130.9000,E,44.3,256.0,000070,,,A
$GPGGA,120405.233,-3003.5520,N,-5130.9204,E,1,08,0.8,46.1,M,,,
$GPRMC,120405.233,A,-3003.5520,N,-5130.9204,E,44.3,257.0,000070,,,A
$GPGGA,120407.502,-3003.5556,N,-5130.9402,E,1,08,0.8,46.1,M,,,
$GPRMC,120407.502,A,-3003.5556,N,-5130.9402,E,44.3,257.0,000070,,,A
$GPGGA,120409.849,-3003.5598,N,-5130.9606,E,1,08,0.8,46.1,M,,,
$GPRMC,120409.849,A,-3003.5598,N,-5130.9606,E,44.3,258.0,000070,,,A
$GPGGA,120412.107,-3003.5628,N,-5130.9804,E,1,08,0.8,46.1,M,,,
$GPRMC,120412.107,A,-3003.5628,N,-5130.9804,E,44.3,260.0,000070,,,A
$GPGGA,120414.431,-3003.5658,N,-5131.0008,E,1,08,0.8,46.1,M,,,
$GPRMC,120414.431,A,-3003.5658,N,-5131.0008,E,44.3,260.0,000070,,,A
$GPGGA,120416.755,-3003.5688,N,-5131.0212,E,1,08,0.8,46.1,M,,,
$GPRMC,120416.755,A,-3003.5688,N,-5131.0212,E,44.3,260.0,000070,,,A
$GPGGA,120419.080,-3003.5718,N,-5131.0416,E,1,08,0.8,46.1,M,,,
$GPRMC,120419.080,A,-3003.5718,N,-5131.0416,E,44.3,259.0,000070,,,A
$GPGGA,120421.348,-3003.5754,N,-5131.0614,E,1,08,0.8,46.1,M,,,
$GPRMC,120421.348,A,-3003.5754,N,-5131.0614,E,44.3,259.0,000070,,,A
$GPGGA,120423.672,-3003.5784,N,-5131.0818,E,1,08,0.8,46.1,M,,,
$GPRMC,120423.672,A,-3003.5784,N,-5131.0818,E,44.3,260.0,000070,,,A
$GPGGA,120425.997,-3003.5814,N,-5131.1022,E,1,08,0.8,46.1,M,,,
$GPRMC,120425.997,A,-3003.5814,N,-5131.1022,E,44.3,260.0,000070,,,A
$GPGGA,120428.321,-3003.5844,N,-5131.1226,E,1,08,0.8,46.1,M,,,
$GPRMC,120428.321,A,-3003.5844,N,-5131.1226,E,44.3,259.0,000070,,,A
$GPGGA,120430.656,-3003.5880,N,-5131.1430,E,1,08,0.8,46.1,M,,,
$GPRMC,120430.656,A,-3003.5880,N,-5131.1430,E,44.3,259.0,000070,,,A
$GPGGA,120432.913,-3003.5910,N,-5131.1628,E,1,08,0.8,46.1,M,,,
$GPRMC,120432.913,A,-3003.5910,N,-5131.1628,E,44.3,260.0,000070,,,A
$GPGGA,120435.237,-3003.5940,N,-5131.1832,E,1,08,0.8,46.1,M,,,
$GPRMC,120435.237,A,-3003.5940,N,-5131.1832,E,44.3,260.0,000070,,,A
$GPGGA,120437.562,-3003.5970,N,-5131.2036,E,1,08,0.8,46.1,M,,,
$GPRMC,120437.562,A,-3003.5970,N,-5131.2036,E,44.3,260.0,000070,,,A
$GPGGA,120439.886,-3003.6000,N,-5131.2240,E,1,08,0.8,46.1,M,,,
$GPRMC,120439.886,A,-3003.6000,N,-5131.2240,E,44.3,259.0,000070,,,A
$GPGGA,120442.154,-3003.6036,N,-5131.2438,E,1,08,0.8,46.1,M,,,
$GPRMC,120442.154,A,-3003.6036,N,-5131.2438,E,44.3,259.0,000070,,,A
$GPGGA,120444.479,-3003.6066,N,-5131.2642,E,1,08,0.8,46.1,M,,,
$GPRMC,120444.479,A,-3003.6066,N,-5131.2642,E,44.3,260.0,000070,,,A
$GPGGA,120446.803,-3003.6096,N,-5131.2846,E,1,08,0.8,46.1,M,,,
$GPRMC,120446.803,A,-3003.6096,N,-5131.2846,E,44.3,260.0,000070,,,A
$GPGGA,120449.127,-3003.6126,N,-5131.3050,E,1,08,0.8,46.1,M,,,
$GPRMC,120449.127,A,-3003.6126,N,-5131.3050,E,44.3,260.0,000070,,,A
$GPGGA,120451.385,-3003.6156,N,-5131.3248,E,1,08,0.8,46.1,M,,,
$GPRMC,120451.385,A,-3003.6156,N,-5131.3248,E,44.3,259.0,000070,,,A
$GPGGA,120453.720,-3003.6192,N,-5131.3452,E,1,08,0.8,46.1,M,,,
$GPRMC,120453.720,A,-3003.6192,N,-5131.3452,E,44.3,259.0,000070,,,A
$GPGGA,120456.044,-3003.6222,N,-5131.3656,E,1,08,0.8,46.1,M,,,
$GPRMC,120456.044,A,-3003.6222,N,-5131.3656,E,44.3,260.0,000070,,,A
$GPGGA,120458.368,-3003.6252,N,-5131.3860,E,1,08,0.8,46.1,M,,,
$GPRMC,120458.368,A,-3003.6252,N,-5131.3860,E,44.3,260.0,000070,,,A
$GPGGA,120500.692,-3003.6282,N,-5131.4064,E,1,08,0.8,46.1,M,,,
$GPRMC,120500.692,A,-3003.6282,N,-5131.4064,E,44.3,259.0,000070,,,A
$GPGGA,120502.961,-3003.6318,N,-5131.4262,E,1,08,0.8,46.1,M,,,
$GPRMC,120502.961,A,-3003.6318,N,-5131.4262,E,44.3,259.0,000070,,,A
$GPGGA,120505.285,-3003.6348,N,-5131.4466,E,1,08,0.8,46.1,M,,,
$GPRMC,120505.285,A,-3003.6348,N,-5131.4466,E,44.3,260.0,000070,,,A
$GPGGA,120507.609,-3003.6378,N,-5131.4670,E,1,08,0.8,46.1,M,,,
$GPRMC,120507.609,A,-3003.6378,N,-5131.4670,E,44.3,260.0,000070,,,A
$GPGGA,120509.934,-3003.6408,N,-5131.4874,E,1,08,0.8,46.1,M,,,
$GPRMC,120509.934,A,-3003.6408,N,-5131.4874,E,44.3,260.0,000070,,,A
$GPGGA,120512.191,-3003.6438,N,-5131.5072,E,1,08,0.8,46.1,M,,,
$GPRMC,120512.191,A,-3003.6438,N,-5131.5072,E,44.3,259.0,000070,,,A
$GPGGA,120514.526,-3003.6474,N,-5131.5276,E,1,08,0.8,46.1,M,,,
$GPRMC,120514.526,A,-3003.6474,N,-5131.5276,E,44.3,259.0,000070,,,A
$GPGGA,120516.850,-3003.6504,N,-5131.5480,E,1,08,0.8,46.1,M,,,
$GPRMC,120516.850,A,-3003.6504,N,-5131.5480,E,44.3,260.0,000070,,,A
$GPGGA,120519.174,-3003.6534,N,-5131.5684,E,1,08,0.8,46.1,M,,,
$GPRMC,120519.174,A,-3003.6534,N,-5131.5684,E,44.3,260.0,000070,,,A
$GPGGA,120521.432,-3003.6564,N,-5131.5882,E,1,08,0.8,46.1,M,,,
$GPRMC,120521.432,A,-3003.6564,N,-5131.5882,E,44.3,259.0,000070,,,A
$GPGGA,120523.767,-3003.6600,N,-5131.6086,E,1,08,0.8,46.1,M,,,
$GPRMC,120523.767,A,-3003.6600,N,-5131.6086,E,44.3,259.0,000070,,,A
$GPGGA,120526.091,-3003.6630,N,-5131.6290,E,1,08,0.8,46.1,M,,,
$GPRMC,120526.091,A,-3003.6630,N,-5131.6290,E,44.3,260.0,000070,,,A
$GPGGA,120528.415,-3003.6660,N,-5131.6494,E,1,08,0.8,46.1,M,,,
$GPRMC,120528.415,A,-3003.6660,N,-5131.6494,E,44.3,260.0,000070,,,A
$GPGGA,120530.673,-3003.6690,N,-5131.6692,E,1,08,0.8,46.1,M,,,
$GPRMC,120530.673,A,-3003.6690,N,-5131.6692,E,44.3,260.0,000070,,,A
$GPGGA,120532.997,-3003.6720,N,-5131.6896,E,1,08,0.8,46.1,M,,,
$GPRMC,120532.997,A,-3003.6720,N,-5131.6896,E,44.3,259.0,000070,,,A
$GPGGA,120535.332,-3003.6756,N,-5131.7100,E,1,08,0.8,46.1,M,,,
$GPRMC,120535.332,A,-3003.6756,N,-5131.7100,E,44.3,259.0,000070,,,A
$GPGGA,120537.656,-3003.6786,N,-5131.7304,E,1,08,0.8,46.1,M,,,
$GPRMC,120537.656,A,-3003.6786,N,-5131.7304,E,44.3,260.0,000070,,,A
$GPGGA,120539.980,-3003.6816,N,-5131.7508,E,1,08,0.8,46.1,M,,,
$GPRMC,120539.980,A,-3003.6816,N,-5131.7508,E,44.3,260.0,000070,,,A
$GPGGA,120542.238,-3003.6846,N,-5131.7706,E,1,08,0.8,46.1,M,,,
$GPRMC,120542.238,A,-3003.6846,N,-5131.7706,E,44.3,259.0,000070,,,A
$GPGGA,120544.573,-3003.6882,N,-5131.7910,E,1,08,0.8,46.1,M,,,
$GPRMC,120544.573,A,-3003.6882,N,-5131.7910,E,44.3,259.0,000070,,,A
$GPGGA,120546.897,-3003.6912,N,-5131.8114,E,1,08,0.8,46.1,M,,,
$GPRMC,120546.897,A,-3003.6912,N,-5131.8114,E,44.3,259.0,000070,,,A
$GPGGA,120549.166,-3003.6948,N,-5131.8312,E,1,08,0.8,46.1,M,,,
$GPRMC,120549.166,A,-3003.6948,N,-5131.8312,E,44.3,258.0,000070,,,A
$GPGGA,120551.501,-3003.6984,N,-5131.8516,E,1,08,0.8,46.1,M,,,
$GPRMC,120551.501,A,-3003.6984,N,-5131.8516,E,44.3,259.0,000070,,,A
$GPGGA,120553.825,-3003.7014,N,-5131.8720,E,1,08,0.8,46.1,M,,,
$GPRMC,120553.825,A,-3003.7014,N,-5131.8720,E,44.3,259.0,000070,,,A
$GPGGA,120556.093,-3003.7050,N,-5131.8918,E,1,08,0.8,46.1,M,,,
$GPRMC,120556.093,A,-3003.7050,N,-5131.8918,E,44.3,258.0,000070,,,A
$GPGGA,120558.428,-3003.7086,N,-5131.9122,E,1,08,0.8,46.1,M,,,
$GPRMC,120558.428,A,-3003.7086,N,-5131.9122,E,44.3,259.0,000070,,,A
$GPGGA,120600.753,-3003.7116,N,-5131.9326,E,1,08,0.8,46.1,M,,,
$GPRMC,120600.753,A,-3003.7116,N,-5131.9326,E,44.3,259.0,000070,,,A
$GPGGA,120603.021,-3003.7152,N,-5131.9524,E,1,08,0.8,46.1,M,,,
$GPRMC,120603.021,A,-3003.7152,N,-5131.9524,E,44.3,258.0,000070,,,A
$GPGGA,120605.356,-3003.7188,N,-5131.9728,E,1,08,0.8,46.1,M,,,
$GPRMC,120605.356,A,-3003.7188,N,-5131.9728,E,44.3,259.0,000070,,,A
$GPGGA,120607.680,-3003.7218,N,-5131.9932,E,1,08,0.8,46.1,M,,,
$GPRMC,120607.680,A,-3003.7218,N,-5131.9932,E,44.3,259.0,000070,,,A
$GPGGA,120609.949,-3003.7254,N,-5132.0130,E,1,08,0.8,46.1,M,,,
$GPRMC,120609.949,A,-3003.7254,N,-5132.0130,E,44.3,258.0,000070,,,A
$GPGGA,120612.284,-3003.7290,N,-5132.0334,E,1,08,0.8,46.1,M,,,
$GPRMC,120612.284,A,-3003.7290,N,-5132.0334,E,44.3,259.0,000070,,,A
$GPGGA,120614.619,-3003.7326,N,-5132.0538,E,1,08,0.8,46.1,M,,,
$GPRMC,120614.619,A,-3003.7326,N,-5132.0538,E,44.3,259.0,000070,,,A
$GPGGA,120616.876,-3003.7356,N,-5132.0736,E,1,08,0.8,46.1,M,,,
$GPRMC,120616.876,A,-3003.7356,N,-5132.0736,E,44.3,259.0,000070,,,A
$GPGGA,120619.211,-3003.7392,N,-5132.0940,E,1,08,0.8,46.1,M,,,
$GPRMC,120619.211,A,-3003.7392,N,-5132.0940,E,44.3,259.0,000070,,,A
$GPGGA,120621.546,-3003.7428,N,-5132.1144,E,1,08,0.8,46.1,M,,,
$GPRMC,120621.546,A,-3003.7428,N,-5132.1144,E,44.3,259.0,000070,,,A
$GPGGA,120623.804,-3003.7458,N,-5132.1342,E,1,08,0.8,46.1,M,,,
$GPRMC,120623.804,A,-3003.7458,N,-5132.1342,E,44.3,259.0,000070,,,A
$GPGGA,120626.139,-3003.7494,N,-5132.1546,E,1,08,0.8,46.1,M,,,
$GPRMC,120626.139,A,-3003.7494,N,-5132.1546,E,44.3,259.0,000070,,,A
$GPGGA,120628.474,-3003.7530,N,-5132.1750,E,1,08,0.8,46.1,M,,,
$GPRMC,120628.474,A,-3003.7530,N,-5132.1750,E,44.3,259.0,000070,,,A
$GPGGA,120630.731,-3003.7560,N,-5132.1948,E,1,08,0.8,46.1,M,,,
$GPRMC,120630.731,A,-3003.7560,N,-5132.1948,E,44.3,259.0,000070,,,A
$GPGGA,120633.066,-3003.7596,N,-5132.2152,E,1,08,0.8,46.1,M,,,
$GPRMC,120633.066,A,-3003.7596,N,-5132.2152,E,44.3,259.0,000070,,,A
$GPGGA,120635.401,-3003.7632,N,-5132.2356,E,1,08,0.8,46.1,M,,,
$GPRMC,120635.401,A,-3003.7632,N,-5132.2356,E,44.3,259.0,000070,,,A
$GPGGA,120637.659,-3003.7662,N,-5132.2554,E,1,08,0.8,46.1,M,,,
$GPRMC,120637.659,A,-3003.7662,N,-5132.2554,E,44.3,259.0,000070,,,A
$GPGGA,120639.994,-3003.7698,N,-5132.2758,E,1,08,0.8,46.1,M,,,
$GPRMC,120639.994,A,-3003.7698,N,-5132.2758,E,44.3,259.0,000070,,,A
$GPGGA,120642.329,-3003.7734,N,-5132.2962,E,1,08,0.8,46.1,M,,,
$GPRMC,120642.329,A,-3003.7734,N,-5132.2962,E,44.3,259.0,000070,,,A
$GPGGA,120644.586,-3003.7764,N,-5132.3160,E,1,08,0.8,46.1,M,,,
$GPRMC,120644.586,A,-3003.7764,N,-5132.3160,E,44.3,259.0,000070,,,A
$GPGGA,120646.921,-3003.7800,N,-5132.3364,E,1,08,0.8,46.1,M,,,
$GPRMC,120646.921,A,-3003.7800,N,-5132.3364,E,44.3,259.0,000070,,,A
$GPGGA,120649.256,-3003.7836,N,-5132.3568,E,1,08,0.8,46.1,M,,,
$GPRMC,120649.256,A,-3003.7836,N,-5132.3568,E,44.3,259.0,000070,,,A
$GPGGA,120651.514,-3003.7866,N,-5132.3766,E,1,08,0.8,46.1,M,,,
$GPRMC,120651.514,A,-3003.7866,N,-5132.3766,E,44.3,259.0,000070,,,A
$GPGGA,120653.849,-3003.7902,N,-5132.3970,E,1,08,0.8,46.1,M,,,
$GPRMC,120653.849,A,-3003.7902,N,-5132.3970,E,44.3,259.0,000070,,,A
$GPGGA,120656.184,-3003.7938,N,-5132.4174,E,1,08,0.8,46.1,M,,,
$GPRMC,120656.184,A,-3003.7938,N,-5132.4174,E,44.3,259.0,000070,,,A
$GPGGA,120658.441,-3003.7968,N,-5132.4372,E,1,08,0.8,46.1,M,,,
$GPRMC,120658.441,A,-3003.7968,N,-5132.4372,E,44.3,259.0,000070,,,A
$GPGGA,120700.776,-3003.8004,N,-5132.4576,E,1,08,0.8,46.1,M,,,
$GPRMC,120700.776,A,-3003.8004,N,-5132.4576,E,44.3,259.0,000070,,,A
$GPGGA,120703.100,-3003.8034,N,-5132.4780,E,1,08,0.8,46.1,M,,,
$GPRMC,120703.100,A,-3003.8034,N,-5132.4780,E,44.3,260.0,000070,,,A
$GPGGA,120705.425,-3003.8064,N,-5132.4984,E,1,08,0.8,46.1,M,,,
$GPRMC,120705.425,A,-3003.8064,N,-5132.4984,E,44.3,259.0,000070,,,A
$GPGGA,120707.693,-3003.8100,N,-5132.5182,E,1,08,0.8,46.1,M,,,
$GPRMC,120707.693,A,-3003.8100,N,-5132.5182,E,44.3,259.0,000070,,,A
$GPGGA,120710.017,-3003.8130,N,-5132.5386,E,1,08,0.8,46.1,M,,,
$GPRMC,120710.017,A,-3003.8130,N,-5132.5386,E,44.3,260.0,000070,,,A
$GPGGA,120712.342,-3003.8160,N,-5132.5590,E,1,08,0.8,46.1,M,,,
$GPRMC,120712.342,A,-3003.8160,N,-5132.5590,E,44.3,260.0,000070,,,A
$GPGGA,120714.666,-3003.8190,N,-5132.5794,E,1,08,0.8,46.1,M,,,
$GPRMC,120714.666,A,-3003.8190,N,-5132.5794,E,44.3,260.0,000070,,,A
$GPGGA,120716.923,-3003.8220,N,-5132.5992,E,1,08,0.8,46.1,M,,,
$GPRMC,120716.923,A,-3003.8220,N,-5132.5992,E,44.3,260.0,000070,,,A
$GPGGA,120719.247,-3003.8250,N,-5132.6196,E,1,08,0.8,46.1,M,,,
$GPRMC,120719.247,A,-3003.8250,N,-5132.6196,E,44.3,260.0,000070,,,A
$GPGGA,120721.572,-3003.8280,N,-5132.6400,E,1,08,0.8,46.1,M,,,
$GPRMC,120721.572,A,-3003.8280,N,-5132.6400,E,44.3,260.0,000070,,,A
$GPGGA,120723.896,-3003.8310,N,-5132.6604,E,1,08,0.8,46.1,M,,,
$GPRMC,120723.896,A,-3003.8310,N,-5132.6604,E,44.3,260.0,000070,,,A
$GPGGA,120726.220,-3003.8340,N,-5132.6808,E,1,08,0.8,46.1,M,,,
$GPRMC,120726.220,A,-3003.8340,N,-5132.6808,E,44.3,260.0,000070,,,A
$GPGGA,120728.478,-3003.8370,N,-5132.7006,E,1,08,0.8,46.1,M,,,
$GPRMC,120728.478,A,-3003.8370,N,-5132.7006,E,44.3,260.0,000070,,,A
$GPGGA,120730.802,-3003.8400,N,-5132.7210,E,1,08,0.8,46.1,M,,,
$GPRMC,120730.802,A,-3003.8400,N,-5132.7210,E,44.3,260.0,000070,,,A
$GPGGA,120733.126,-3003.8430,N,-5132.7414,E,1,08,0.8,46.1,M,,,
$GPRMC,120733.126,A,-3003.8430,N,-5132.7414,E,44.3,260.0,000070,,,A
$GPGGA,120735.450,-3003.8460,N,-5132.7618,E,1,08,0.8,46.1,M,,,
$GPRMC,120735.450,A,-3003.8460,N,-5132.7618,E,44.3,259.0,000070,,,A
$GPGGA,120737.719,-3003.8496,N,-5132.7816,E,1,08,0.8,46.1,M,,,
$GPRMC,120737.719,A,-3003.8496,N,-5132.7816,E,44.3,259.0,000070,,,A
$GPGGA,120740.043,-3003.8526,N,-5132.8020,E,1,08,0.8,46.1,M,,,
$GPRMC,120740.043,A,-3003.8526,N,-5132.8020,E,44.3,260.0,000070,,,A
$GPGGA,120742.367,-3003.8556,N,-5132.8224,E,1,08,0.8,46.1,M,,,
$GPRMC,120742.367,A,-3003.8556,N,-5132.8224,E,44.3,260.0,000070,,,A
$GPGGA,120744.692,-3003.8586,N,-5132.8428,E,1,08,0.8,46.1,M,,,
$GPRMC,120744.692,A,-3003.8586,N,-5132.8428,E,44.3,260.0,000070,,,A
$GPGGA,120746.949,-3003.8616,N,-5132.8626,E,1,08,0.8,46.1,M,,,
$GPRMC,120746.949,A,-3003.8616,N,-5132.8626,E,44.3,260.0,000070,,,A
$GPGGA,120749.273,-3003.8646,N,-5132.8830,E,1,08,0.8,46.1,M,,,
$GPRMC,120749.273,A,-3003.8646,N,-5132.8830,E,44.3,260.0,000070,,,A
$GPGGA,120751.597,-3003.8676,N,-5132.9034,E,1,08,0.8,46.1,M,,,
$GPRMC,120751.597,A,-3003.8676,N,-5132.9034,E,44.3,260.0,000070,,,A
$GPGGA,120753.922,-3003.8706,N,-5132.9238,E,1,08,0.8,46.1,M,,,
$GPRMC,120753.922,A,-3003.8706,N,-5132.9238,E,44.3,260.0,000070,,,A
$GPGGA,120756.246,-3003.8736,N,-5132.9442,E,1,08,0.8,46.1,M,,,
$GPRMC,120756.246,A,-3003.8736,N,-5132.9442,E,44.3,260.0,000070,,,A
$GPGGA,120758.503,-3003.8766,N,-5132.9640,E,1,08,0.8,46.1,M,,,
$GPRMC,120758.503,A,-3003.8766,N,-5132.9640,E,44.3,260.0,000070,,,A
$GPGGA,120800.828,-3003.8796,N,-5132.9844,E,1,08,0.8,46.1,M,,,
$GPRMC,120800.828,A,-3003.8796,N,-5132.9844,E,44.3,260.0,000070,,,A
$GPGGA,120803.152,-3003.8826,N,-5133.0048,E,1,08,0.8,46.1,M,,,
$GPRMC,120803.152,A,-3003.8826,N,-5133.0048,E,44.3,260.0,000070,,,A
$GPGGA,120805.476,-3003.8856,N,-5133.0252,E,1,08,0.8,46.1,M,,,
$GPRMC,120805.476,A,-3003.8856,N,-5133.0252,E,44.3,259.0,000070,,,A
$GPGGA,120807.744,-3003.8892,N,-5133.0450,E,1,08,0.8,46.1,M,,,
$GPRMC,120807.744,A,-3003.8892,N,-5133.0450,E,44.3,259.0,000070,,,A
$GPGGA,120810.069,-3003.8922,N,-5133.0654,E,1,08,0.8,46.1,M,,,
$GPRMC,120810.069,A,-3003.8922,N,-5133.0654,E,44.3,260.0,000070,,,A
$GPGGA,120812.393,-3003.8952,N,-5133.0858,E,1,08,0.8,46.1,M,,,
$GPRMC,120812.393,A,-3003.8952,N,-5133.0858,E,44.3,260.0,000070,,,A
$GPGGA,120814.717,-3003.8982,N,-5133.1062,E,1,08,0.8,46.1,M,,,
$GPRMC,120814.717,A,-3003.8982,N,-5133.1062,E,44.3,259.0,000070,,,A
$GPGGA,120817.052,-3003.9018,N,-5133.1266,E,1,08,0.8,46.1,M,,,
$GPRMC,120817.052,A,-3003.9018,N,-5133.1266,E,44.3,259.0,000070,,,A
$GPGGA,120819.310,-3003.9048,N,-5133.1464,E,1,08,0.8,46.1,M,,,
$GPRMC,120819.310,A,-3003.9048,N,-5133.1464,E,44.3,260.0,000070,,,A
$GPGGA,120821.634,-3003.9078,N,-5133.1668,E,1,08,0.8,46.1,M,,,
$GPRMC,120821.634,A,-3003.9078,N,-5133.1668,E,44.3,259.0,000070,,,A
$GPGGA,120823.969,-3003.9114,N,-5133.1872,E,1,08,0.8,46.1,M,,,
$GPRMC,120823.969,A,-3003.9114,N,-5133.1872,E,44.3,259.0,000070,,,A
$GPGGA,120826.293,-3003.9144,N,-5133.2076,E,1,08,0.8,46.1,M,,,
$GPRMC,120826.293,A,-3003.9144,N,-5133.2076,E,44.3,260.0,000070,,,A
$GPGGA,120828.551,-3003.9174,N,-5133.2274,E,1,08,0.8,46.1,M,,,
$GPRMC,120828.551,A,-3003.9174,N,-5133.2274,E,44.3,259.0,000070,,,A
$GPGGA,120830.886,-3003.9210,N,-5133.2478,E,1,08,0.8,46.1,M,,,
$GPRMC,120830.886,A,-3003.9210,N,-5133.2478,E,44.3,259.0,000070,,,A
$GPGGA,120833.210,-3003.9240,N,-5133.2682,E,1,08,0.8,46.1,M,,,
$GPRMC,120833.210,A,-3003.9240,N,-5133.2682,E,44.3,260.0,000070,,,A
$GPGGA,120835.534,-3003.9270,N,-5133.2886,E,1,08,0.8,46.1,M,,,
$GPRMC,120835.534,A,-3003.9270,N,-5133.2886,E,44.3,259.0,000070,,,A
$GPGGA,120837.803,-3003.9306,N,-5133.3084,E,1,08,0.8,46.1,M,,,
$GPRMC,120837.803,A,-3003.9306,N,-5133.3084,E,44.3,259.0,000070,,,A
$GPGGA,120840.127,-3003.9336,N,-5133.3288,E,1,08,0.8,46.1,M,,,
$GPRMC,120840.127,A,-3003.9336,N,-5133.3288,E,44.3,260.0,000070,,,A
$GPGGA,120842.451,-3003.9366,N,-5133.3492,E,1,08,0.8,46.1,M,,,
$GPRMC,120842.451,A,-3003.9366,N,-5133.3492,E,44.3,259.0,000070,,,A
$GPGGA,120844.786,-3003.9402,N,-5133.3696,E,1,08,0.8,46.1,M,,,
$GPRMC,120844.786,A,-3003.9402,N,-5133.3696,E,44.3,259.0,000070,,,A
$GPGGA,120847.043,-3003.9432,N,-5133.3894,E,1,08,0.8,46.1,M,,,
$GPRMC,120847.043,A,-3003.9432,N,-5133.3894,E,44.3,260.0,000070,,,A
$GPGGA,120849.368,-3003.9462,N,-5133.4098,E,1,08,0.8,46.1,M,,,
$GPRMC,120849.368,A,-3003.9462,N,-5133.4098,E,44.3,259.0,000070,,,A
$GPGGA,120851.703,-3003.9498,N,-5133.4302,E,1,08,0.8,46.1,M,,,
$GPRMC,120851.703,A,-3003.9498,N,-5133.4302,E,44.3,259.0,000070,,,A
$GPGGA,120854.027,-3003.9528,N,-5133.4506,E,1,08,0.8,46.1,M,,,
$GPRMC,120854.027,A,-3003.9528,N,-5133.4506,E,44.3,260.0,000070,,,A
$GPGGA,120856.284,-3003.9558,N,-5133.4704,E,1,08,0.8,46.1,M,,,
$GPRMC,120856.284,A,-3003.9558,N,-5133.4704,E,44.3,259.0,000070,,,A
$GPGGA,120858.619,-3003.9594,N,-5133.4908,E,1,08,0.8,46.1,M,,,
$GPRMC,120858.619,A,-3003.9594,N,-5133.4908,E,44.3,259.0,000070,,,A
$GPGGA,120900.944,-3003.9624,N,-5133.5112,E,1,08,0.8,46.1,M,,,
$GPRMC,120900.944,A,-3003.9624,N,-5133.5112,E,44.3,260.0,000070,,,A
$GPGGA,120903.268,-3003.9654,N,-5133.5316,E,1,08,0.8,46.1,M,,,
$GPRMC,120903.268,A,-3003.9654,N,-5133.5316,E,44.3,259.0,000070,,,A
$GPGGA,120905.536,-3003.9690,N,-5133.5514,E,1,08,0.8,46.1,M,,,
$GPRMC,120905.536,A,-3003.9690,N,-5133.5514,E,44.3,259.0,000070,,,A
$GPGGA,120907.861,-3003.9720,N,-5133.5718,E,1,08,0.8,46.1,M,,,
$GPRMC,120907.861,A,-3003.9720,N,-5133.5718,E,44.3,260.0,000070,,,A
$GPGGA,120910.185,-3003.9750,N,-5133.5922,E,1,08,0.8,46.1,M,,,
$GPRMC,120910.185,A,-3003.9750,N,-5133.5922,E,44.3,259.0,000070,,,A
$GPGGA,120912.520,-3003.9786,N,-5133.6126,E,1,08,0.8,46.1,M,,,
$GPRMC,120912.520,A,-3003.9786,N,-5133.6126,E,44.3,259.0,000070,,,A
$GPGGA,120914.844,-3003.9816,N,-5133.6330,E,1,08,0.8,46.1,M,,,
$GPRMC,120914.844,A,-3003.9816,N,-5133.6330,E,44.3,259.0,000070,,,A
$GPGGA,120917.113,-3003.9852,N,-5133.6528,E,1,08,0.8,46.1,M,,,
$GPRMC,120917.113,A,-3003.9852,N,-5133.6528,E,44.3,259.0,000070,,,A
$GPGGA,120919.437,-3003.9882,N,-5133.6732,E,1,08,0.8,46.1,M,,,
$GPRMC,120919.437,A,-3003.9882,N,-5133.6732,E,44.3,260.0,000070,,,A
$GPGGA,120921.761,-3003.9912,N,-5133.6936,E,1,08,0.8,46.1,M,,,
$GPRMC,120921.761,A,-3003.9912,N,-5133.6936,E,44.3,259.0,000070,,,A
$GPGGA,120924.096,-3003.9948,N,-5133.7140,E,1,08,0.8,46.1,M,,,
$GPRMC,120924.096,A,-3003.9948,N,-5133.7140,E,44.3,259.0,000070,,,A
$GPGGA,120926.354,-3003.9978,N,-5133.7338,E,1,08,0.8,46.1,M,,,
$GPRMC,120926.354,A,-3003.9978,N,-5133.7338,E,44.3,260.0,000070,,,A
$GPGGA,120928.678,-3004.0008,N,-5133.7542,E,1,08,0.8,46.1,M,,,
$GPRMC,120928.678,A,-3004.0008,N,-5133.7542,E,44.3,259.0,000070,,,A
$GPGGA,120931.013,-3004.0044,N,-5133.7746,E,1,08,0.8,46.1,M,,,
$GPRMC,120931.013,A,-3004.0044,N,-5133.7746,E,44.3,259.0,000070,,,A
$GPGGA,120933.337,-3004.0074,N,-5133.7950,E,1,08,0.8,46.1,M,,,
$GPRMC,120933.337,A,-3004.0074,N,-5133.7950,E,44.3,260.0,000070,,,A
$GPGGA,120935.594,-3004.0104,N,-5133.8148,E,1,08,0.8,46.1,M,,,
$GPRMC,120935.594,A,-3004.0104,N,-5133.8148,E,44.3,259.0,000070,,,A
$GPGGA,120937.930,-3004.0140,N,-5133.8352,E,1,08,0.8,46.1,M,,,
$GPRMC,120937.930,A,-3004.0140,N,-5133.8352,E,44.3,259.0,000070,,,A
$GPGGA,120940.254,-3004.0170,N,-5133.8556,E,1,08,0.8,46.1,M,,,
$GPRMC,120940.254,A,-3004.0170,N,-5133.8556,E,44.3,260.0,000070,,,A
$GPGGA,120942.578,-3004.0200,N,-5133.8760,E,1,08,0.8,46.1,M,,,
$GPRMC,120942.578,A,-3004.0200,N,-5133.8760,E,44.3,259.0,000070,,,A
$GPGGA,120944.846,-3004.0236,N,-5133.8958,E,1,08,0.8,46.1,M,,,
$GPRMC,120944.846,A,-3004.0236,N,-5133.8958,E,44.3,259.0,000070,,,A
$GPGGA,120947.171,-3004.0266,N,-5133.9162,E,1,08,0.8,46.1,M,,,
$GPRMC,120947.171,A,-3004.0266,N,-5133.9162,E,44.3,260.0,000070,,,A
$GPGGA,120949.495,-3004.0296,N,-5133.9366,E,1,08,0.8,46.1,M,,,
$GPRMC,120949.495,A,-3004.0296,N,-5133.9366,E,44.3,259.0,000070,,,A
$GPGGA,120951.830,-3004.0332,N,-5133.9570,E,1,08,0.8,46.1,M,,,
$GPRMC,120951.830,A,-3004.0332,N,-5133.9570,E,44.3,259.0,000070,,,A
$GPGGA,120954.087,-3004.0362,N,-5133.9768,E,1,08,0.8,46.1,M,,,
$GPRMC,120954.087,A,-3004.0362,N,-5133.9768,E,44.3,260.0,000070,,,A
$GPGGA,120956.412,-3004.0392,N,-5133.9972,E,1,08,0.8,46.1,M,,,
$GPRMC,120956.412,A,-3004.0392,N,-5133.9972,E,44.3,259.0,000070,,,A
$GPGGA,120958.747,-3004.0428,N,-5134.0176,E,1,08,0.8,46.1,M,,,
$GPRMC,120958.747,A,-3004.0428,N,-5134.0176,E,44.3,259.0,000070,,,A
$GPGGA,121001.071,-3004.0458,N,-5134.0380,E,1,08,0.8,46.1,M,,,
$GPRMC,121001.071,A,-3004.0458,N,-5134.0380,E,44.3,260.0,000070,,,A
$GPGGA,121003.328,-3004.0488,N,-5134.0578,E,1,08,0.8,46.1,M,,,
$GPRMC,121003.328,A,-3004.0488,N,-5134.0578,E,44.3,259.0,000070,,,A
$GPGGA,121005.663,-3004.0524,N,-5134.0782,E,1,08,0.8,46.1,M,,,
$GPRMC,121005.663,A,-3004.0524,N,-5134.0782,E,44.3,259.0,000070,,,A
$GPGGA,121007.988,-3004.0554,N,-5134.0986,E,1,08,0.8,46.1,M,,,
$GPRMC,121007.988,A,-3004.0554,N,-5134.0986,E,44.3,259.0,000070,,,A
$GPGGA,121010.323,-3004.0590,N,-5134.1190,E,1,08,0.8,46.1,M,,,
$GPRMC,121010.323,A,-3004.0590,N,-5134.1190,E,44.3,258.0,000070,,,A
$GPGGA,121012.591,-3004.0626,N,-5134.1388,E,1,08,0.8,46.1,M,,,
$GPRMC,121012.591,A,-3004.0626,N,-5134.1388,E,44.3,259.0,000070,,,A
$GPGGA,121014.915,-3004.0656,N,-5134.1592,E,1,08,0.8,46.1,M,,,
$GPRMC,121014.915,A,-3004.0656,N,-5134.1592,E,44.3,259.0,000070,,,A
$GPGGA,121017.250,-3004.0692,N,-5134.1796,E,1,08,0.8,46.1,M,,,
$GPRMC,121017.250,A,-3004.0692,N,-5134.1796,E,44.3,258.0,000070,,,A
$GPGGA,121019.519,-3004.0728,N,-5134.1994,E,1,08,0.8,46.1,M,,,
$GPRMC,121019.519,A,-3004.0728,N,-5134.1994,E,44.3,258.0,000070,,,A
$GPGGA,121021.854,-3004.0764,N,-5134.2198,E,1,08,0.8,46.1,M,,,
$GPRMC,121021.854,A,-3004.0764,N,-5134.2198,E,44.3,259.0,000070,,,A
$GPGGA,121024.178,-3004.0794,N,-5134.2402,E,1,08,0.8,46.1,M,,,
$GPRMC,121024.178,A,-3004.0794,N,-5134.2402,E,44.3,259.0,000070,,,A
$GPGGA,121026.447,-3004.0830,N,-5134.2600,E,1,08,0.8,46.1,M,,,
$GPRMC,121026.447,A,-3004.0830,N,-5134.2600,E,44.3,258.0,000070,,,A
$GPGGA,121028.782,-3004.0866,N,-5134.2804,E,1,08,0.8,46.1,M,,,
$GPRMC,121028.782,A,-3004.0866,N,-5134.2804,E,44.3,259.0,000070,,,A
$GPGGA,121031.106,-3004.0896,N,-5134.3008,E,1,08,0.8,46.1,M,,,
$GPRMC,121031.106,A,-3004.0896,N,-5134.3008,E,44.3,259.0,000070,,,A
$GPGGA,121033.374,-3004.0932,N,-5134.3206,E,1,08,0.8,46.1,M,,,
$GPRMC,121033.374,A,-3004.0932,N,-5134.3206,E,44.3,258.0,000070,,,A
$GPGGA,121035.709,-3004.0968,N,-5134.3410,E,1,08,0.8,46.1,M,,,
$GPRMC,121035.709,A,-3004.0968,N,-5134.3410,E,44.3,259.0,000070,,,A
$GPGGA,121038.034,-3004.0998,N,-5134.3614,E,1,08,0.8,46.1,M,,,
$GPRMC,121038.034,A,-3004.0998,N,-5134.3614,E,44.3,260.0,000070,,,A
$GPGGA,121040.358,-3004.1028,N,-5134.3818,E,1,08,0.8,46.1,M,,,
$GPRMC,121040.358,A,-3004.1028,N,-5134.3818,E,44.3,260.0,000070,,,A
$GPGGA,121042.615,-3004.1058,N,-5134.4016,E,1,08,0.8,46.1,M,,,
$GPRMC,121042.615,A,-3004.1058,N,-5134.4016,E,44.3,259.0,000070,,,A
$GPGGA,121044.950,-3004.1094,N,-5134.4220,E,1,08,0.8,46.1,M,,,
$GPRMC,121044.950,A,-3004.1094,N,-5134.4220,E,44.3,259.0,000070,,,A
$GPGGA,121047.275,-3004.1124,N,-5134.4424,E,1,08,0.8,46.1,M,,,
$GPRMC,121047.275,A,-3004.1124,N,-5134.4424,E,44.3,260.0,000070,,,A
$GPGGA,121049.532,-3004.1154,N,-5134.4622,E,1,08,0.8,46.1,M,,,
$GPRMC,121049.532,A,-3004.1154,N,-5134.4622,E,44.3,260.0,000070,,,A
$GPGGA,121051.856,-3004.1184,N,-5134.4826,E,1,08,0.8,46.1,M,,,
$GPRMC,121051.856,A,-3004.1184,N,-5134.4826,E,44.3,260.0,000070,,,A
$GPGGA,121054.180,-3004.1214,N,-5134.5030,E,1,08,0.8,46.1,M,,,
$GPRMC,121054.180,A,-3004.1214,N,-5134.5030,E,44.3,260.0,000070,,,A
$GPGGA,121056.505,-3004.1244,N,-5134.5234,E,1,08,0.8,46.1,M,,,
$GPRMC,121056.505,A,-3004.1244,N,-5134.5234,E,44.3,260.0,000070,,,A
$GPGGA,121058.762,-3004.1274,N,-5134.5432,E,1,08,0.8,46.1,M,,,
$GPRMC,121058.762,A,-3004.1274,N,-5134.5432,E,44.3,260.0,000070,,,A
$GPGGA,121101.086,-3004.1304,N,-5134.5636,E,1,08,0.8,46.1,M,,,
$GPRMC,121101.086,A,-3004.1304,N,-5134.5636,E,44.3,259.0,000070,,,A
$GPGGA,121103.421,-3004.1340,N,-5134.5840,E,1,08,0.8,46.1,M,,,
$GPRMC,121103.421,A,-3004.1340,N,-5134.5840,E,44.3,259.0,000070,,,A
$GPGGA,121105.679,-3004.1370,N,-5134.6038,E,1,08,0.8,46.1,M,,,
$GPRMC,121105.679,A,-3004.1370,N,-5134.6038,E,44.3,260.0,000070,,,A
$GPGGA,121108.003,-3004.1400,N,-5134.6242,E,1,08,0.8,46.1,M,,,
$GPRMC,121108.003,A,-3004.1400,N,-5134.6242,E,44.3,260.0,000070,,,A
$GPGGA,121110.327,-3004.1430,N,-5134.6446,E,1,08,0.8,46.1,M,,,
$GPRMC,121110.327,A,-3004.1430,N,-5134.6446,E,44.3,260.0,000070,,,A
$GPGGA,121112.651,-3004.1460,N,-5134.6650,E,1,08,0.8,46.1,M,,,
$GPRMC,121112.651,A,-3004.1460,N,-5134.6650,E,44.3,260.0,000070,,,A
$GPGGA,121114.909,-3004.1490,N,-5134.6848,E,1,08,0.8,46.1,M,,,
$GPRMC,121114.909,A,-3004.1490,N,-5134.6848,E,44.3,259.0,000070,,,A
$GPGGA,121117.244,-3004.1526,N,-5134.7052,E,1,08,0.8,46.1,M,,,
$GPRMC,121117.244,A,-3004.1526,N,-5134.7052,E,44.3,258.0,000070,,,A
$GPGGA,121119.512,-3004.1562,N,-5134.7250,E,1,08,0.8,46.1,M,,,
$GPRMC,121119.512,A,-3004.1562,N,-5134.7250,E,44.3,258.0,000070,,,A
$GPGGA,121121.847,-3004.1598,N,-5134.7454,E,1,08,0.8,46.1,M,,,
$GPRMC,121121.847,A,-3004.1598,N,-5134.7454,E,44.3,257.0,000070,,,A
$GPGGA,121124.129,-3004.1640,N,-5134.7652,E,1,08,0.8,46.1,M,,,
$GPRMC,121124.129,A,-3004.1640,N,-5134.7652,E,44.3,257.0,000070,,,A
$GPGGA,121126.464,-3004.1676,N,-5134.7856,E,1,08,0.8,46.1,M,,,
$GPRMC,121126.464,A,-3004.1676,N,-5134.7856,E,44.3,258.0,000070,,,A
$GPGGA,121128.732,-3004.1712,N,-5134.8054,E,1,08,0.8,46.1,M,,,
$GPRMC,121128.732,A,-3004.1712,N,-5134.8054,E,44.3,254.0,000070,,,A
$GPGGA,121131.065,-3004.1772,N,-5134.8252,E,1,08,0.8,46.1,M,,,
$GPRMC,121131.065,A,-3004.1772,N,-5134.8252,E,44.3,249.0,000070,,,A
$GPGGA,121133.289,-3004.1838,N,-5134.8438,E,1,08,0.8,46.1,M,,,
$GPRMC,121133.289,A,-3004.1838,N,-5134.8438,E,44.3,248.0,000070,,,A
$GPGGA,121135.578,-3004.1904,N,-5134.8630,E,1,08,0.8,46.1,M,,,
$GPRMC,121135.578,A,-3004.1904,N,-5134.8630,E,44.3,248.0,000070,,,A
$GPGGA,121137.866,-3004.1970,N,-5134.8822,E,1,08,0.8,46.1,M,,,
$GPRMC,121137.866,A,-3004.1970,N,-5134.8822,E,44.3,247.0,000070,,,A
$GPGGA,121140.115,-3004.2042,N,-5134.9008,E,1,08,0.8,46.1,M,,,
$GPRMC,121140.115,A,-3004.2042,N,-5134.9008,E,44.3,241.0,000070,,,A
$GPGGA,121142.355,-3004.2138,N,-5134.9182,E,1,08,0.8,46.1,M,,,
$GPRMC,121142.355,A,-3004.2138,N,-5134.9182,E,44.3,238.0,000070,,,A
$GPGGA,121144.595,-3004.2234,N,-5134.9356,E,1,08,0.8,46.1,M,,,
$GPRMC,121144.595,A,-3004.2234,N,-5134.9356,E,44.3,237.0,000070,,,A
$GPGGA,121146.776,-3004.2330,N,-5134.9524,E,1,08,0.8,46.1,M,,,
$GPRMC,121146.776,A,-3004.2330,N,-5134.9524,E,44.3,237.0,000070,,,A
$GPGGA,121149.016,-3004.2426,N,-5134.9698,E,1,08,0.8,46.1,M,,,
$GPRMC,121149.016,A,-3004.2426,N,-5134.9698,E,44.3,238.0,000070,,,A
$GPGGA,121151.256,-3004.2522,N,-5134.9872,E,1,08,0.8,46.1,M,,,
$GPRMC,121151.256,A,-3004.2522,N,-5134.9872,E,44.3,236.0,000070,,,A
$GPGGA,121153.471,-3004.2624,N,-5135.0040,E,1,08,0.8,46.1,M,,,
$GPRMC,121153.471,A,-3004.2624,N,-5135.0040,E,44.3,235.0,000070,,,A
$GPGGA,121155.687,-3004.2726,N,-5135.0208,E,1,08,0.8,46.1,M,,,
$GPRMC,121155.687,A,-3004.2726,N,-5135.0208,E,44.3,235.0,000070,,,A
$GPGGA,121157.902,-3004.2828,N,-5135.0376,E,1,08,0.8,46.1,M,,,
$GPRMC,121157.902,A,-3004.2828,N,-5135.0376,E,44.3,235.0,000070,,,A
$GPGGA,121200.118,-3004.2930,N,-5135.0544,E,1,08,0.8,46.1,M,,,
$GPRMC,121200.118,A,-3004.2930,N,-5135.0544,E,44.3,235.0,000070,,,A
